DCID,Permit Number,Program Name,Facility Type,Program Type,Street Address,Borough,Zip Code,Phone Number,Child Age Range,Children Allowed in Care,Administer Medication,BIN,BBL,Community Board,Council District,Census Tract,NTA Code,Latitude,Longitude
DC41101,105897,VIVA KIDS,GCC,PRESCHOOL,1207 QUENTIN RD,BROOKLYN,11229,(917) 609-0760,2 YEARS - 5 YEARS,38,No,3182349,3067750043,315,48,055400,BK25,40.607969524285,-73.960783611128
DC43726,106595,Kennedy Children's Center,GCC,PRESCHOOL,333 EAST 115 STREET,MANHATTAN,10029,(212) 988-9500,2 YEARS - 5 YEARS,34,No,1052905,1016870017,111,08,018800,MN34,40.795734118392,-73.936918648166
DC42292,106181,NACHAS PLAYGROUP LLC,GCC,INFANT TODDLER,428 WYTHE AVENUE,BROOKLYN,11249,(718) 517-8020,0 YEARS - 2 YEARS,92,No,3063648,3024697503,301,33,054900,BK73,40.711202471137,-73.966533627566
DC22162,22037,BUMBLEBEES R-US INC.,GCC,PRESCHOOL,443 TARGEE STREET,STATEN ISLAND,10304,(718) 727-2724,2 YEARS - 5 YEARS,35,No,5016361,5006440009,501,49,002900,SI37,40.616132581468,-74.084738556153
DC42952,106206,BEANSTALK CHILD CARE ACADEMY,GCC,PRESCHOOL,1334 LOUIS NINE BOULEVARD,BRONX,10459,(718) 991-2119,2 YEARS - 5 YEARS,153,No,2118405,2029767501,203,17,012300,BX75,40.831528143485,-73.892335904079
DC37869,105389,ALPHABET CITY CHILD CARE CENTER LLC,GCC,PRESCHOOL,26-27 2 STREET,QUEENS,11102,(718) 626-0050,2 YEARS - 5 YEARS,54,No,4615286,4009140005,401,22,008700,QN71,40.776275366816,-73.934770788426
DC10600,7249,"TUTOR TIME LEARNING CENTERS, LLC.",GCC,PRESCHOOL,7817-25 3 AVENUE,BROOKLYN,11209,(718) 680-6566,2 YEARS - 5 YEARS,32,No,3150280,3059690001,310,47,006400,BK31,40.62909375043,-74.028745246123
DC16645,4032,TREMONT CROTONA EARLY LEARN CENTER,GCC,PRESCHOOL,1600 CROTONA PARK EAST,BRONX,10460,(718) 378-5600,2 YEARS - 5 YEARS,50,No,2009866,2029390090,203,15,015500,BX75,40.836698167497,-73.891203582188
DC41305,105999,JHELC INC,GCC,PRESCHOOL,33-11 77 STREET,QUEENS,11372,(646) 243-7595,2 YEARS - 5 YEARS,13,No,4028769,4012500063,403,25,028700,QN28,40.754667319366,-73.889930399258
DC1161,2323,THE CHURCH ON THE HILL - REFORMED,GCC,PRESCHOOL,167-07 35 AVENUE,QUEENS,11358,(718) 539-0732,2 YEARS - 5 YEARS,72,No,4118837,4052520077,407,19,114100,QN51,40.765050056749,-73.798442971464
DC19444,8166,RAINBOW CHILD DEVELOPMENT,GCC,PRESCHOOL,133-20 AVERY    AVENUE,QUEENS,11355,(718) 321-1610,2 YEARS - 5 YEARS,154,No,,,,,,,,
DC20592,8395,SUNSHINE  NURSERY & DAY CARE INC.,GCC,PRESCHOOL,580A GATES AVENUE,BROOKLYN,11221,(718) 452-9740,2 YEARS - 5 YEARS,26,No,3051227,3018150039,303,36,026500,BK75,40.687140460238,-73.942423207627
DC25309,48737,PARSONS PRESCHOOL,GCC,PRESCHOOL,231-10 HILLSIDE AVENUE,QUEENS,11427,(718) 464-5606,2 YEARS - 5 YEARS,232,Yes,4166214,4079400027,413,23,130100,QN43,40.733057261747,-73.738693387758
DC43872,106694,OITZERLECH INC.,GCC,PRESCHOOL,21 MESEROLE STREET,BROOKLYN,11206,(929) 539-0560,2 YEARS - 5 YEARS,26,No,3427297,3030400044,301,34,051100,BK90,40.707485313741,-73.949518307451
DC40635,105614,"B'ABOVE WORLDWIDE INSTITUTE, INC",GCC,PRESCHOOL,1919 CORTELYOU ROAD,BROOKLYN,11226,(718) 288-9546,2 YEARS - 5 YEARS,117,No,3118534,3051500031,314,40,051400,BK42,40.642965438117,-73.960546761805
DC11818,7734,"HAPPY DRAGON OF USA, INC",GCC,PRESCHOOL,98-25 HORACE HARDING EXPRESSWAY,QUEENS,11368,(718) 446-9021,2 YEARS - 5 YEARS,150,No,4047330,4019180090,404,21,045500,QN25,40.735679128072,-73.859813694227
DC21252,8252,"CENTRAL PARK MONTESSORI, INC.",GCC,PRESCHOOL,1 WEST 91ST STREET,MANHATTAN,10024,(212) 595-2000,2 YEARS - 5 YEARS,126,Yes,1031625,1012050029,107,06,017700,MN12,40.788528047931,-73.967130193305
DC34674,103851,"BRIGHT START CHILD LEARNING CENTER, INC.",GCC,INFANT TODDLER,23-88 31 STREET,QUEENS,11105,(718) 777-2347,0 YEARS - 2 YEARS,64,No,4597006,4008427501,401,22,011500,QN72,40.772526896412,-73.915108608042
DC37978,104839,"Learning Ladder Daycare Center, LLC",GCC,PRESCHOOL,2082 UTICA  AVENUE,BROOKLYN,11234,(929) 417-2463,2 YEARS - 5 YEARS,44,No,3336927,3078740052,318,46,067200,BK58,40.62077391865,-73.927085032875
DC2224,5205,YOUNG MEN'S CHRISTIAN ASSOCIATION OF GREATER NEW YORK,GCC,INFANT TODDLER,5 WEST 63 STREET,MANHATTAN,10023,(212) 912-2650,0 YEARS - 2 YEARS,28,No,1027468,1011160024,107,06,014900,MN14,40.770681958402,-73.980464658752
DC40208,105468,"SHOLOM, SHOLOM INC.",GCC,PRESCHOOL,83-78 DANIELS STREET,QUEENS,11435,(718) 487-3747,2 YEARS - 5 YEARS,107,No,4207889,4097160154,408,24,022002,QN35,40.713651837152,-73.814936047246
DC21253,8251,"CENTRAL PARK MONTESSORI, INC.",GCC,INFANT TODDLER,1 WEST 91ST STREET,MANHATTAN,10024,(212) 595-2000,0 YEARS - 2 YEARS,36,Yes,1031625,1012050029,107,06,017700,MN12,40.788528047931,-73.967130193305
DC44914,N/A,BET YAAKOV MEKOR HAIM,SBCC,PRESCHOOL,1649 EAST   13 STREET,BROOKLYN,11229,(718) 332-0399,3 YEARS - 5 YEARS,NO DATA,No,3409262,3067760055,315,48,055400,BK25,40.609127633715,-73.960231893905
DC44747,106754,PANTOMIMA BIG KIDS CARE CORP.,GCC,INFANT TODDLER,4102 8 AVENUE,BROOKLYN,11232,(774) 316-0750,0 YEARS - 2 YEARS,10,No,3425760,3009227503,307,38,009200,BK34,40.646065591271,-73.998569397608
DC42144,106341,"CHILDTIME CHILDCARE, INC",GCC,INFANT TODDLER,762 41 STREET,BROOKLYN,11232,(845) 560-6659,0 YEARS - 2 YEARS,13,No,3397586,3009227502,307,38,009200,BK34,40.646685918901,-73.999365772365
DC42968,106198,BEANSTALK CHILD CARE ACADEMY,GCC,INFANT TODDLER,58 BELMONT AVENUE,BROOKLYN,11212,(718) 346-1064,0 YEARS - 2 YEARS,43,No,3081140,3035260215,316,41,090600,BK81,40.668733631281,-73.908183093392
DC15291,7806,CHAI TOTS PRESCHOOL OF PROSPECT HEIGHTS ( I/T),GCC,INFANT TODDLER,852 CLASSON AVENUE,BROOKLYN,11238,(718) 399-3979,0 YEARS - 2 YEARS,20,No,3029648,3011800025,308,35,021500,BK64,40.67180231041,-73.96119294485
DC42149,106342,"CHILDTIME CHILDCARE, INC",GCC,PRESCHOOL,762 41 STREET,BROOKLYN,11232,(845) 560-6659,2 YEARS - 5 YEARS,28,No,3397586,3009227502,307,38,009200,BK34,40.646685918901,-73.999365772365
DC2118,6344,BROOKLYN CHILD CARE,GCC,PRESCHOOL,800 POLY PLACE,BROOKLYN,11209,(917) 329-4764,2 YEARS - 5 YEARS,30,No,3345707,3061530001,310,50,016400,BK31,40.609255542125,-74.023989844082
DC39933,106006,PARSONS PRESCHOOL,GCC,PRESCHOOL,156-45 84 STREET,QUEENS,11414,(718) 464-5606,2 YEARS - 5 YEARS,98,Yes,4292302,4139490026,410,32,089200,QN57,40.661864169304,-73.849224719527
DC39932,105860,CIRCLE ACADEMY,GCC,PRESCHOOL,156-45 84 STREET,QUEENS,11414,(718) 229-5050,2 YEARS - 5 YEARS,157,No,4292302,4139490026,410,32,089200,QN57,40.661864169304,-73.849224719527
DC43850,106482,PLAYTO PACIFIC LLC,GCC,INFANT TODDLER,979 PACIFIC STREET,BROOKLYN,11238,(212) 590-5845,0 YEARS - 2 YEARS,60,No,3418381,3011257501,308,35,030500,BK61,40.679594716621,-73.961152339316
DC25613,51759,SAINT CHRISTOPHER  OTTLIE,GCC,PRESCHOOL,411 THATFORD AVENUE,BROOKLYN,11212,(929) 234-6870,2 YEARS - 5 YEARS,144,No,3082389,3036040001,316,41,091800,BK81,40.660298257452,-73.907354945299
DC44221,106756,"IMAGINE EARLY LEARNING CENTERS, LLC",GCC,PRESCHOOL,2870 GOULDEN AVENUE,BRONX,10468,(718) 960-8746,2 YEARS - 5 YEARS,80,No,2119733,2032470001,207,11,040900,BX28,40.873171841314,-73.89595280759
DC38081,104904,"TLE AT QUEENS-LONG ISLAND CITY, LLC",GCC,INFANT TODDLER,27-28 THOMSON AVENUE,QUEENS,11101,(718) 433-4007,NO DATA,68,Yes,4000697,4000827501,402,26,001900,QN31,40.746188471565,-73.942029127028
DC42975,106199,BEANSTALK CHILD CARE ACADEMY,GCC,PRESCHOOL,58 BELMONT AVENUE,BROOKLYN,11212,(718) 346-1064,2 YEARS - 5 YEARS,120,No,3081140,3035260215,316,41,090600,BK81,40.668733631281,-73.908183093392
DC178,5235,BUSHWICK UNITED HOUSING DEVELOPMENT FUND CORPORATION,GCC,PRESCHOOL,331 CENTRAL AVENUE,BROOKLYN,11221,(718) 453-9040,2 YEARS - 5 YEARS,35,No,3075906,3033150001,304,37,041900,BK78,40.69480920943,-73.919401929932
DC44026,106599,Cuddles Center,GCC,INFANT TODDLER,329 BROADWAY,BROOKLYN,11211,(929) 329-1010,0 YEARS - 2 YEARS,105,No,3425870,3024627502,301,34,052700,BK73,40.707965798022,-73.95658745076
DC38209,104953,"ACADEMY OF HELLENIC PAIDEIA, INC",GCC,PRESCHOOL,25-50 CRESCENT STREET,QUEENS,11102,(718) 606-9005,2 YEARS - 5 YEARS,43,No,4541406,4008727502,401,22,006900,QN71,40.772147683019,-73.922239599287
DC39968,105420,LITTLE TULIP DAYCARE CENTER OF LITTLE NECK,GCC,PRESCHOOL,248-12 NORTHERN BOULEVARD,QUEENS,11362,(347) 827-0113,2 YEARS - 5 YEARS,77,Yes,4170638,4082140008,411,19,150701,QN45,40.7671233708,-73.739014088565
DC3017,7119,"BETHEL EMANUEL TEMPLE, INC.",GCC,PRESCHOOL,14-66 BEACH CHANNEL DRIVE,QUEENS,11691,(718) 327-1384,2 YEARS - 5 YEARS,38,No,4449690,4155010002,414,31,103201,QN15,40.609981026791,-73.753586966091
DC2029,1843,BLONDELL JOYNER DAY CARE CENTER,GCC,PRESCHOOL,901-909 TINTON AVENUE,BRONX,10456,(718) 665-7791,2 YEARS - 5 YEARS,40,Yes,2091959,2026380090,203,17,013300,BX35,40.821673516527,-73.903566913133
DC37909,104803,COMMONPOINT QUEENS,GCC,PRESCHOOL,6709 108TH ST,QUEENS,11375,(718) 268-5011,2 YEARS - 5 YEARS,124,No,4051865,4021760001,406,29,074100,QN17,40.728694335426,-73.847413237595
DC44413,106735,CONGREGATION BNOS CHAYA,GCC,INFANT TODDLER,471 NORTH GANNON AVENUE,STATEN ISLAND,10314,(347) 675-9194,0 YEARS - 2 YEARS,10,Yes,5019047,5007510252,501,50,018901,SI07,40.608041193556,-74.144750433463
DC39853,105309,EIS LAASOIS CHILD DEVELOPMENT SERVICES,GCC,PRESCHOOL,6202 15 AVENUE,BROOKLYN,11219,(718) 303-9400,2 YEARS - 5 YEARS,150,No,3141674,3057340045,311,43,025000,BK28,40.624952643634,-73.995435774185
DC14454,6055,"YELED V' YALDA EARLY CHILDHOOD CENTER, INC.",GCC,PRESCHOOL,6012 FARRAGUT ROAD,BROOKLYN,11236,(718) 209-1122,2 YEARS - 5 YEARS,94,No,3223428,3079820049,318,45,095000,BK50,40.63751445271,-73.919053441977
DC3102,7133,"KOG INDUSTRIES, INC.",GCC,INFANT TODDLER,61-58 SPRINGFIELD BOULEVARD,QUEENS,11364,(718) 352-8972,0 YEARS - 2 YEARS,28,No,4162215,4076100040,411,23,136700,QN42,40.748769215036,-73.75655443281
DC2090,7444,BRONX  EARLY CHILDHOOD CENTER,GCC,PRESCHOOL,1515 SOUTHERN BOULEVARD,BRONX,10460,(718) 764-2409,2 YEARS - 5 YEARS,79,Yes,2113511,2029770110,203,17,015500,BX75,40.833727148416,-73.889932809537
DC2321,5568,"PEE WEE FOLKS, Inc.",GCC,PRESCHOOL,12-45 CLINTONVILLE ST,QUEENS,11357,(718) 746-6107,2 YEARS - 5 YEARS,84,No,4102995,4045300018,407,19,098700,QN49,40.790165386132,-73.811829834372
DC37416,104635,SAINT DOMINIC'S FAMILY SERVICES,GCC,PRESCHOOL,2195 VALENTINE AVENUE,BRONX,10457,(347) 270-9219,2 YEARS - 5 YEARS,47,No,2013546,2031490140,205,15,038100,BX41,40.854886403605,-73.898981883407
DC42390,106427,JOY KID'S LEARNING HOUSE INC.,GCC,PRESCHOOL,213-54 35 AVENUE,QUEENS,11361,(718) 229-5888,2 YEARS - 5 YEARS,44,No,4136512,4061730013,411,19,112300,QN46,40.769024535226,-73.773455379812
DC22000,8401,BEIS CHAYA MUSHKA,GCC,INFANT TODDLER,1505 CARROLL STREET,BROOKLYN,11213,(718) 756-0770,0 YEARS - 2 YEARS,285,No,3037851,3014060044,309,35,033500,BK63,40.666464251842,-73.937549628229
DC38593,105479,BRIGHT HORIZONS AT WEST 53RD,GCC,PRESCHOOL,540 WEST 53 STREET,MANHATTAN,10019,(646) 348-9013,2 YEARS - 5 YEARS,97,Yes,1090139,1010817503,104,03,013500,MN15,40.767293581479,-73.992194926927
DC41129,105977,LUMINOUS EARLY CHILD CARE CENTER,GCC,PRESCHOOL,531 E 137TH STREET,BRONX,10454,(718) 215-4125,2 YEARS - 5 YEARS,39,No,2000053,2022650059,201,08,002500,BX39,40.806545374421,-73.918933779341
DC17105,8070,"HIGH HOPES OF STATEN ISLAND, INC.",GCC,PRESCHOOL,1298 WOODROW ROAD,STATEN ISLAND,10309,(718) 317-8143,2 YEARS - 5 YEARS,90,No,5085132,5069340101,503,51,020803,SI32,40.541625868853,-74.20846850504
DC1166,5867,"CHRIST THE KING CONTINUING EDUCATION, INC.",GCC,INFANT TODDLER,68-02 METROPOLITAN AVENUE,QUEENS,11379,(718) 417-6770,0 YEARS - 2 YEARS,62,Yes,4089211,4036670023,405,30,061301,QN20,40.712262196873,-73.888666056725
DC24683,24778,ADDIE MAE COLLINS COMMUNITY SERVICES INC.,GCC,PRESCHOOL,2322 THIRD AVE,MANHATTAN,10035,(212) 831-3144,2 YEARS - 5 YEARS,155,No,1054497,1017750033,111,08,024200,MN34,40.804458751467,-73.935259599242
DC14260,7054,"IMAGINE EARLY LEARNING CENTER, LLC",GCC,INFANT TODDLER,60-62 EAST 97TH STREET,MANHATTAN,10029,(212) 410-2077,0 YEARS - 2 YEARS,25,Yes,1051451,1016020044,111,08,016002,MN33,40.787559679159,-73.952888019361
DC37409,104590,SAINT DOMINIC'S FAMILY SERVICES,GCC,PRESCHOOL,2340 ANDREWS AVENUE,BRONX,10468,(718) 365-7238,2 YEARS - 5 YEARS,137,No,2094684,2032180035,207,14,025500,BX30,40.862276166853,-73.90658804223
DC24834,49798,BRIGHT HORIZONS CHILDREN'S CENTERS LLC.,GCC,PRESCHOOL,175 KENT AVENUE,BROOKLYN,11249,(718) 302-1113,2 YEARS - 5 YEARS,74,No,3396768,3023497501,301,33,055500,BK73,40.718296890852,-73.963871358562
DC18943,7942,EAST BRONX DAY CARE CENTER,GCC,PRESCHOOL,1113 COLGATE AVENUE,BRONX,10472,(718) 617-2900,2 YEARS - 5 YEARS,20,No,2023714,2037360001,209,17,005200,BX55,40.826283262286,-73.881508037871
DC44451,N/A,Talmud Torah D'Chasidei Gur,SBCC,PRESCHOOL,6301 12 AVENUE,BROOKLYN,11219,(718) 923-3113,3 YEARS - 5 YEARS,NO DATA,No,3345686,3057390001,310,43,019400,BK30,40.62837819507,-74.002593853125
DC40296,106699,SIMFRAN ACADEMY,GCC,INFANT TODDLER,93 NORWOOD AVENUE,BROOKLYN,11208,(718) 235-3416,0 YEARS - 2 YEARS,9,No,3091404,3041130001,305,37,117400,BK83,40.683995683423,-73.879695843208
DC42542,106062,Innovators Prep LLC,GCC,PRESCHOOL,4312 CHURCH AVENUE,BROOKLYN,11203,(917) 297-6300,2 YEARS - 5 YEARS,139,No,3319769,3048970007,317,40,085800,BK91,40.651417022829,-73.936915079316
DC42984,106426,ONCE UPON A TIME,GCC,PRESCHOOL,68-05 64 PLACE,QUEENS,11385,(917) 846-7492,2 YEARS - 5 YEARS,38,No,4088248,4036330022,405,30,058100,QN20,40.705712255416,-73.893481258482
DC41178,105780,LUMINOUS EARLY CHILD CARE CENTER,GCC,PRESCHOOL,900 MORRIS PARK AVENUE,BRONX,10462,(347) 893-1670,2 YEARS - 5 YEARS,48,No,2044464,2040940001,211,13,024400,BX37,40.84669557706,-73.859322206334
DC14261,4899,STEPHEN WISE FREE SYNAGOGUE,GCC,INFANT TODDLER,30 WEST 68TH STREET,MANHATTAN,10023,(212) 877-4050,0 YEARS - 2 YEARS,10,No,1028249,1011200044,107,06,015300,MN14,40.774200504193,-73.97915301362
DC2682,5817,BRIGHT HORIZONS CHILDREN'S CENTERS,GCC,INFANT TODDLER,1271 AVENUE OF THE AMERICAS,MANHATTAN,10020,(315) 615-6352,0 YEARS - 2 YEARS,18,No,1022709,1010030029,105,04,013100,MN17,40.760282020579,-73.98015728348
DC2828,5818,BRIGHT HORIZONS CHILDREN'S CENTER,GCC,PRESCHOOL,1271 AVENUE OF THE AMERICAS,MANHATTAN,10020,(315) 615-6352,2 YEARS - 5 YEARS,15,No,1022709,1010030029,105,04,013100,MN17,40.760282020579,-73.98015728348
DC2022,7107,LPBC UPK Corp,GCC,PRESCHOOL,7524 14 AVENUE,BROOKLYN,11228,(718) 621-5458,2 YEARS - 5 YEARS,23,No,3160022,3062220045,310,38,019800,BK30,40.618776841211,-74.005435498865
DC2329,1964,COMMONPOINT QUEENS,GCC,PRESCHOOL,58-20 LITTLE NECK PARKWAY,QUEENS,11362,(718) 225-6750,2 YEARS - 5 YEARS,138,No,4173029,4083520051,411,23,152902,QN45,40.761569138024,-73.723120227739
DC40247,105694,"Petits Poussins Brooklyn, LLC",GCC,INFANT TODDLER,11 HOYT STREET,BROOKLYN,11201,(917) 825-8763,0 YEARS - 2 YEARS,34,No,3329438,3001577501,302,33,003700,BK38,40.690208914013,-73.985327481511
DC1779,5182,URBAN STRATEGIES DAY CARE CENTER #1,GCC,PRESCHOOL,1091 SUTTER AVENUE,BROOKLYN,11208,(718) 235-6151,2 YEARS - 5 YEARS,137,No,3089620,3040390001,305,42,119400,BK82,40.671884138031,-73.878196490769
DC2736,6174,"THE COLLEGE OF STATEN ISLAND ASSOCIATON, INC.",GCC,PRESCHOOL,2800E VICTORY BOULEVARD,STATEN ISLAND,10314,(718) 982-3190,2 YEARS - 5 YEARS,75,Yes,5107289,5020400001,502,50,027301,SI05,40.604270518624,-74.148516360898
DC41345,105962,A+ DAYCARE LLC,GCC,PRESCHOOL,105-25 65 ROAD,QUEENS,11375,(718) 204-0626,2 YEARS - 5 YEARS,20,No,4051460,4021517501,406,29,074300,QN17,40.730391854278,-73.850447368897
DC22669,22097,ITTY BITTY ADVENTURES LLC,GCC,PRESCHOOL,3416 AVENUE S,BROOKLYN,11234,(718) 355-8960,2 YEARS - 5 YEARS,40,No,3240855,3085200042,318,46,065800,BK45,40.608914335604,-73.932604760846
DC42421,N/A,AL MADINAH SCHOOL,SBCC,PRESCHOOL,1835 BAY RIDGE PARKWAY,BROOKLYN,11204,(718) 222-4986,3 YEARS - 5 YEARS,NO DATA,No,3159712,3062160060,311,43,027400,BK28,40.612911263568,-73.995184479146
DC42462,106704,LAFAYETTE CHILD CARE CENTER LLC,GCC,PRESCHOOL,765 LAFAYETTE AVENUE,BROOKLYN,11221,(917) 776-2135,2 YEARS - 5 YEARS,16,No,3348295,3017870001,303,36,028100,BK35,40.690941807469,-73.942095375316
DC25981,51657,LA PUERTA ABIERTA,GCC,PRESCHOOL,3001 WEST 37TH STREET,BROOKLYN,11224,(718) 266-5333,2 YEARS - 5 YEARS,169,No,3189617,3070650001,313,47,034000,BK21,40.573169559536,-74.002508910504
DC44073,106705,EAST 156 DAYCARE LLC,GCC,PRESCHOOL,780 SAINT ANNS AVENUE,BRONX,10456,(973) 464-7292,2 YEARS - 5 YEARS,20,No,2117695,2026187501,201,17,007500,BX34,40.820169331838,-73.910260374772
DC24680,91439,SUNSHINE LC OF 3RD AVE LLC,GCC,PRESCHOOL,2205 THIRD AVENUE,MANHATTAN,10035,(646) 757-3168,2 YEARS - 5 YEARS,109,No,1088601,1017857502,111,08,019400,MN34,40.800642335343,-73.938030066433
DC14148,6175,THE COLLEGE OF STATEN ISLAND ASSOCIATION INC.,GCC,INFANT TODDLER,2800E VICTORY BOULEVARD,STATEN ISLAND,10314,(718) 982-3190,0 YEARS - 2 YEARS,18,Yes,5107289,5020400001,502,50,027301,SI05,40.604270518624,-74.148516360898
DC22793,53540,"WORLDWIDE ENTITIES, LLC",GCC,PRESCHOOL,50 OSAGE LANE,STATEN ISLAND,10312,(718) 227-2500,2 YEARS - 5 YEARS,95,Yes,5167549,5053730001,503,51,015602,SI01,40.53287293488,-74.160707010401
DC411,5228,PRACTICAL LEARNING CENTER (P/S),GCC,PRESCHOOL,22-32 BUCKINGHAM ROAD,BROOKLYN,11226,(718) 282-4200,2 YEARS - 5 YEARS,96,No,3328169,3050760014,314,40,050600,BK42,40.649974357353,-73.965151790669
DC32861,103650,BRIGHT HORIZONS CHILDREN'S CENTERS LLC,GCC,PRESCHOOL,42-09 28TH STREET,QUEENS,11101,(718) 361-6414,2 YEARS - 5 YEARS,60,No,4538327,4004207501,402,26,001900,QN31,40.749634394008,-73.939135181882
DC21573,8322,LITTLE BERRIES INC,GCC,PRESCHOOL,8416 19 AVENUE,BROOKLYN,11214,(929) 333-9595,2 YEARS - 5 YEARS,31,No,3165323,3063320042,311,38,027800,BK28,40.606946944107,-73.999409368292
DC1297,5570,Lucille Rose Day Care Center,GCC,PRESCHOOL,148 BEACH 59 STREET,QUEENS,11692,(718) 634-0331,2 YEARS - 5 YEARS,55,No,4618757,4159260001,414,31,097202,QN12,40.590439716571,-73.7887357309
DC40808,105641,A KIDS SPACE TO DREAM,GCC,INFANT TODDLER,578 E 138TH ST,BRONX,10454,(347) 862-2465,0 YEARS - 2 YEARS,46,No,2092841,2025500012,201,08,002701,BX39,40.806579646925,-73.916961444748
DC17714,7900,SIMFRAN ACADEMY,GCC,PRESCHOOL,93 NORWOOD AVENUE,BROOKLYN,11208,(718) 235-3416,2 YEARS - 5 YEARS,35,No,3091404,3041130001,305,37,117400,BK83,40.683995683423,-73.879695843208
DC14364,6004,"IMAGINE EARLY LEARNING CENTERS, LLC",GCC,INFANT TODDLER,423 EAST 23 STREET,MANHATTAN,10010,(212) 951-3435,0 YEARS - 2 YEARS,18,Yes,1081691,1009550005,106,04,006200,MN20,40.73648450538,-73.977786434808
DC35339,104037,"CHINESE-AMERICAN PLANNING COUNCIL, INC.",GCC,PRESCHOOL,133-14 41  AVENUE,QUEENS,11355,(718) 358-8899,2 YEARS - 5 YEARS,39,Yes,4617434,4050410005,407,20,084900,QN22,40.756971609708,-73.832177224694
DC40807,105642,A KIDS SPACE TO DREAM CHILDCARE,GCC,PRESCHOOL,578 EAST  138 STREET,BRONX,10454,(347) 318-7375,2 YEARS - 5 YEARS,77,No,2092841,2025500012,201,08,002701,BX39,40.806579646925,-73.916961444748
DC41245,105868,JOY LEARNING GARDEN II,GCC,PRESCHOOL,20-16 COLLEGE POINT BOULEVARD,QUEENS,11356,(347) 990-5638,2 YEARS - 5 YEARS,39,No,4595538,4041640027,407,19,092500,QN23,40.781197005898,-73.845978099527
DC42025,106500,All My Children Day Care and Nursery School,GCC,PRESCHOOL,163 EAST   84 STREET,MANHATTAN,10028,(929) 484-4670,2 YEARS - 5 YEARS,45,No,1047676,1015130029,108,04,014801,MN40,40.777899334622,-73.955873703612
DC2424,5050,SOCIETY OF THIRD STREET MUSIC SCHOOL SETTLEMENT,GCC,PRESCHOOL,235 EAST 11 STREET,MANHATTAN,10003,(212) 777-3240,2 YEARS - 5 YEARS,72,No,1006849,1004677501,103,02,004000,MN22,40.73079880782,-73.987364320723
DC39286,105296,"Vivvi 4, LLC",GCC,INFANT TODDLER,55 HUDSON YARDS,MANHATTAN,10001,(212) 561-8914,0 YEARS - 2 YEARS,36,No,1089412,1007050001,104,03,009900,MN13,40.755439214916,-74.002219825347
DC19160,7972,"NORTHEAST BRONX DAY CARE CENTER,INC.",GCC,PRESCHOOL,3440 WHITE PLAINS RD.,BRONX,10467,(718) 655-5500,2 YEARS - 5 YEARS,60,No,2093518,2046290050,212,12,037400,BX44,40.876207824152,-73.866976191563
DC32515,74857,"BUMBLEBEES-R-US, INC.",GCC,PRESCHOOL,5721 6TH  AVENUE,BROOKLYN,11220,(718) 633-8828,2 YEARS - 5 YEARS,169,No,3015780,3008490001,307,43,010200,BK34,40.63968057262,-74.012355325985
DC43914,106568,"B'ABOVE WORLDWIDE INSTITUTE, INC.",GCC,PRESCHOOL,1436 67 STREET,BROOKLYN,11219,(718) 551-1227,2 YEARS - 5 YEARS,90,No,3142954,3057690023,311,43,019000,BK28,40.622935317864,-73.999643374392
DC390,5692,"ZION DAY CARE CENTER, INC",GCC,PRESCHOOL,5000 14TH AVENUE,BROOKLYN,11219,(718) 438-2862,2 YEARS - 5 YEARS,87,No,3138079,3056490038,312,44,023600,BK88,40.633049458811,-73.990593018879
DC36669,104607,BRIGHT HORIZONS AT EAST 46TH STREET,GCC,PRESCHOOL,127 EAST 46TH STREET,MANHATTAN,10017,(646) 348-9011,2 YEARS - 5 YEARS,59,No,1036206,1013010023,106,04,009200,MN19,40.753893723083,-73.973943827333
DC15558,7793,"YELED V' YALDA EARLY CHILDHOOD CENTER, INC.",GCC,PRESCHOOL,1257-1263 38TH STREET,BROOKLYN,11218,(718) 514-8602,2 YEARS - 5 YEARS,264,No,3394062,3052950047,312,39,022600,BK88,40.64178571353,-73.986693011387
DC416,1567,"EDITH & CARL MARKS JEWISH COMMUNITY HOUSE OF BENSONHURST, INC",GCC,PRESCHOOL,7802 BAY PARKWAY,BROOKLYN,11214,(718) 943-6333,2 YEARS - 5 YEARS,58,No,3162352,3062640030,311,43,027000,BK28,40.606361800172,-73.989235471665
DC40905,106115,BRIGHT AND BUSY DAYCARE INC.,GCC,PRESCHOOL,33-02 30 AVENUE,QUEENS,11103,(929) 510-8729,2 YEARS - 5 YEARS,20,No,4009030,4006250042,401,22,006300,QN70,40.766077244091,-73.919654696612
DC1623,6464,BRONX RIVER EARLY LEARN CENTER,GCC,PRESCHOOL,1555 EAST 174 STREET,BRONX,10472,(718) 842-6582,2 YEARS - 5 YEARS,54,No,2092903,2038860002,209,17,006200,BX08,40.834286900541,-73.878848449276
DC44055,106605,PARK SLOPE LITTLE LEARNERS INC.,GCC,PRESCHOOL,463 6 AVENUE,BROOKLYN,11215,(347) 422-0214,2 YEARS - 5 YEARS,22,No,3022671,3010180006,306,39,015100,BK37,40.667287190395,-73.984543117499
DC42550,106130,Kuei Luck Early Childhood Center LLC,GCC,PRESCHOOL,132 W 112TH ST,MANHATTAN,10026,(212) 931-9029,2 YEARS - 5 YEARS,49,No,1087384,1018210055,110,09,021600,MN11,40.8001554817,-73.953240261076
DC14480,6575,BIG BIRDS PLAYHOUSE CORP.,GCC,PRESCHOOL,1859 RICHMOND AVENUE,STATEN ISLAND,10314,(718) 982-0550,2 YEARS - 5 YEARS,64,No,5034924,5020300047,502,50,027301,SI05,40.602661456556,-74.163086769773
DC25327,51197,"BRIGHT HORIZONS CHILDREN'S CENTERS, LLC",GCC,INFANT TODDLER,409 EAST 60TH STREET,MANHATTAN,10022,(212) 750-4534,0 YEARS - 2 YEARS,36,Yes,1045274,1014550008,108,05,010602,MN31,40.759994383258,-73.960953658462
DC43772,106667,THE LEARNING EXPERIENCE,GCC,INFANT TODDLER,8902 5 AVENUE,BROOKLYN,11209,(718) 921-8750,0 YEARS - 2 YEARS,16,No,3154221,3060660026,310,47,016000,BK31,40.619651925758,-74.027804618024
DC42511,106120,"KINDER VINKEL, INC.",GCC,PRESCHOOL,1462 62 STREET,BROOKLYN,11219,(718) 436-2245,2 YEARS - 5 YEARS,51,No,3141674,3057340045,311,43,025000,BK28,40.625540054642,-73.9961814348
DC39267,105291,THE LEARNING EXPERIENCE,GCC,INFANT TODDLER,814 AMSTERDAM AVENUE,MANHATTAN,10025,(212) 316-0890,0 YEARS - 2 YEARS,18,Yes,1056462,1018717503,107,07,018700,MN12,40.796441583372,-73.968632351453
DC42514,106535,LITTLE ME DAYCARE CENTER,GCC,INFANT TODDLER,1537 DEAN STREET,BROOKLYN,11213,(718) 925-2752,0 YEARS - 2 YEARS,20,No,3429138,3013407504,308,36,031100,BK61,40.676177730346,-73.937021353415
DC14357,1997,LEGGETT MEMORIAL EARLY CHILDHOOD CENTER,GCC,PRESCHOOL,237 EAST 104 STREET,MANHATTAN,10029,(212) 828-6051,2 YEARS - 5 YEARS,74,No,1080671,1016540011,111,08,017000,MN33,40.789680255279,-73.944266253327
DC25044,94577,KENNEDY CHILDREN'S CENTER,GCC,PRESCHOOL,2212 THIRD AVENUE,MANHATTAN,10035,(212) 988-9500,2 YEARS - 5 YEARS,177,Yes,1087272,1017697501,111,08,019600,MN34,40.800823432082,-73.937925150831
DC18839,8068,"POLICE ATHLETIC LEAGUE, INC.",GCC,PRESCHOOL,454 PENNSYLVANIA AVE,BROOKLYN,11207,(718) 342-4724,2 YEARS - 5 YEARS,114,Yes,3084629,3038050029,305,42,112600,BK85,40.666020879218,-73.894381158803
DC43487,106703,WEEHIVE DAYCARE INC.,GCC,INFANT TODDLER,1267 57 STREET,BROOKLYN,11219,(347) 563-0695,0 YEARS - 2 YEARS,27,No,3140077,3056907503,312,44,021600,BK88,40.631048873374,-73.997604192193
DC43139,106527,ROCKEFELLER CHILD AND FAMILY CENTER,GCC,INFANT TODDLER,1194 YORK AVENUE,MANHATTAN,10065,(212) 327-7071,0 YEARS - 2 YEARS,44,No,1087131,1014800010,108,05,011600,MN31,40.761914424825,-73.957331874288
DC20249,27077,BUMBLEBEES-R-US DAY CARE CENTER,GCC,PRESCHOOL,2813 FARRAGUT ROAD,BROOKLYN,11210,(718) 434-2337,2 YEARS - 5 YEARS,173,No,3120967,3052300003,314,45,078800,BK42,40.636167853943,-73.94970217396
DC43137,106528,ROCKEFELLER CHILD AND FAMILY CENTER,GCC,PRESCHOOL,1226 YORK AVENUE,MANHATTAN,10065,(212) 327-7071,2 YEARS - 5 YEARS,86,No,1089035,1014800010,108,05,011600,MN31,40.762866595925,-73.956638165646
DC26079,86518,Sunshine LC of Lexington LLC,GCC,PRESCHOOL,1595 LEXINGTON  AVENUE,MANHATTAN,10029,(212) 444-2026,2 YEARS - 5 YEARS,72,No,1085680,1016297502,111,08,016600,MN33,40.78928420739,-73.948419598114
DC42964,106485,COLIN-NEWELL EARLY CHILDHOOD DEVELOPMENT CENTER,GCC,PRESCHOOL,107-65 MERRICK BOULEVARD,QUEENS,11433,(718) 523-1888,2 YEARS - 5 YEARS,59,No,4617729,4102440211,412,27,041400,QN01,40.698746460296,-73.787320098351
DC422,5362,"BRYAN'S EDUCATIONAL CENTER, INC.",GCC,PRESCHOOL,3924 CHURCH AVENUE,BROOKLYN,11203,(718) 282-6944,2 YEARS - 5 YEARS,53,No,3109655,3048930011,317,40,085800,BK91,40.651229633585,-73.940659619267
DC43947,106544,"UNITED LUBAVITCHER YESHIVOTH, INC.",GCC,INFANT TODDLER,570 CROWN STREET,BROOKLYN,11213,(347) 996-1090,0 YEARS - 2 YEARS,64,No,3393264,3014170007,309,35,033300,BK63,40.665644470424,-73.939237349258
DC19662,8017,TRADITIONAL EDUCATIONAL CENTER,GCC,PRESCHOOL,1469 BROADWAY,BROOKLYN,11221,(718) 443-2577,2 YEARS - 5 YEARS,102,No,3393150,3033730007,304,37,039700,BK78,40.687548739608,-73.918635496017
DC1348,4564,YMCA OF GREATER NY,GCC,PRESCHOOL,69-02 64 STREET,QUEENS,11385,(212) 912-2180,2 YEARS - 5 YEARS,91,No,4088138,4036310006,405,30,058100,QN20,40.704090388238,-73.893797641475
DC1184,7512,SUTTON PLACE SYNAGOGUE,GCC,PRESCHOOL,225 EAST 51 STREET,MANHATTAN,10022,(212) 826-6204,2 YEARS - 5 YEARS,62,No,1038467,1013250015,106,04,009800,MN19,40.756148843474,-73.969586262143
DC44396,106738,"German School Manhattan, LLC",GCC,PRESCHOOL,85 WARREN STREET,MANHATTAN,10007,(212) 274-9636,2 YEARS - 5 YEARS,38,No,1081076,1001327501,101,01,002100,MN24,40.715324022887,-74.0105477199
DC44090,106739,"RABBI SOLOMON KLUGER SCHOOL, Inc.",GCC,PRESCHOOL,1705 49 STREET,BROOKLYN,11204,(718) 236-1171,2 YEARS - 5 YEARS,20,No,3129034,3054490001,312,44,047400,BK88,40.62946662768,-73.982905507425
DC41505,106082,BNEI YOSEL,GCC,PRESCHOOL,4301 10 AVENUE,BROOKLYN,11219,(347) 997-6464,2 YEARS - 5 YEARS,31,No,3136061,3056020009,312,38,011200,BK34,40.642280451005,-73.995308467893
DC3043,7645,St. Nicholas Greek Orthodox Church of Flushing,GCC,PRESCHOOL,43-09 196 STREET,QUEENS,11358,(718) 357-0800,2 YEARS - 5 YEARS,59,No,4124560,4055200001,411,19,145101,QN48,40.757690070953,-73.785625964057
DC40368,105453,Community Life Center Inc.,GCC,PRESCHOOL,260 WEST 153RD STREET,MANHATTAN,10039,(212) 427-3000,2 YEARS - 5 YEARS,40,No,1089911,1020387501,110,09,023600,MN03,40.827403134181,-73.937177580452
DC44500,N/A,YESHIVAT LEV TORAH,SBCC,PRESCHOOL,1317 AVENUE T,BROOKLYN,11229,(718) 743-5511,3 YEARS - 5 YEARS,NO DATA,No,3336568,3072920043,315,48,055600,BK25,40.600911849904,-73.958436263034
DC43160,106504,"MAGIC MOMENTS BROOKLYN, LLC",GCC,INFANT TODDLER,1526 FULTON STREET,BROOKLYN,11216,(347) 464-5544,0 YEARS - 2 YEARS,46,No,3425135,3018640014,303,36,027100,BK61,40.679843487232,-73.939775982908
DC33082,102097,BRIGHT HORIZONS CHILDREN'S CENTERS LLC,GCC,PRESCHOOL,258 WEST 26TH STREET,MANHATTAN,10001,(212) 366-4365,2 YEARS - 5 YEARS,57,No,1088709,1007757502,104,03,009100,MN13,40.746735531505,-73.9960228834
DC38949,106522,"UNIVERSITY SETTLEMENT SOCIETY OF NEW YORK,",GCC,INFANT TODDLER,565 LIVONIA AVENUE,BROOKLYN,11207,(718) 346-3470,0 YEARS - 2 YEARS,20,No,3084621,3038030046,305,42,113000,BK85,40.664408748036,-73.896351794597
DC23106,41797,"BROOKLYN CHINESE-AMERICAN ASSOCIATION, INC.",GCC,PRESCHOOL,871 50TH STREET,BROOKLYN,11220,(347) 789-6939,2 YEARS - 5 YEARS,91,No,3397381,3056377502,312,43,010800,BK34,40.640249386258,-74.002270026816
DC43781,106736,THE LEARNING EXPERIENCE,GCC,PRESCHOOL,8902 5 AVENUE,BROOKLYN,11209,(718) 921-8750,2 YEARS - 5 YEARS,63,No,3154221,3060660026,310,47,016000,BK31,40.619651925758,-74.027804618024
DC1652,4434,THE FRIENDS OF CROWN HEIGHTS EDUCATIONAL CENTER,GCC,INFANT TODDLER,671 PROSPECT PLACE,BROOKLYN,11216,(718) 638-8686,0 YEARS - 2 YEARS,38,No,3030896,3012240045,308,35,022100,BK61,40.674687391167,-73.954593953462
DC182,2094,EAST SIDE HOUSE SETTLEMENT,GCC,PRESCHOOL,375 EAST 143RD STREET,BRONX,10454,(718) 292-5335,2 YEARS - 5 YEARS,80,No,2091101,2023060009,201,08,004100,BX39,40.812695472245,-73.92162125205
DC2220,7087,"IMAGINE EARLY LEARNING CENTERS, LLC",GCC,PRESCHOOL,60-62 EAST 97 STREET,MANHATTAN,10029,(212) 410-2077,2 YEARS - 5 YEARS,56,Yes,1051451,1016020044,111,08,016002,MN33,40.787559679159,-73.952888019361
DC37730,N/A,Bet Yaakov Ohr Sarah,SBCC,PRESCHOOL,2209 AVENUE R,BROOKLYN,11229,(646) 250-9953,3 YEARS - 5 YEARS,NO DATA,No,3329271,3068050050,315,48,055000,BK44,40.606587689596,-73.950574474348
DC44642,106714,LITTLE ROSES DC LLC,GCC,PRESCHOOL,948 MCDONALD AVENUE,BROOKLYN,11218,(347) 520-7108,2 YEARS - 5 YEARS,12,No,3337668,3054070082,312,44,047800,BK88,40.631170155467,-73.977255996316
DC44294,N/A,BRONX ARTS AND SCIENCE CHARTER SCHOOL,SBCC,PRESCHOOL,955 HUTCHINSON RIVER PARKWAY,BRONX,10465,(718) 540-6959,3 YEARS - 5 YEARS,NO DATA,No,2126086,2055420001,210,13,009000,BX09,40.826129605783,-73.836778947283
DC44590,106723,TICKLE TOES DAY CARE LLC,GCC,INFANT TODDLER,450 KENT AVENUE,BROOKLYN,11249,(347) 907-2935,0 YEARS - 2 YEARS,30,No,3387990,3021347502,301,33,054700,BK73,40.708826049734,-73.968471751283
DC44370,106579,LITTLE STARS CHILDCARE PROGRAM VII LLC,GCC,INFANT TODDLER,4180 CARPENTER AVENUE,BRONX,10466,(917) 736-6737,0 YEARS - 2 YEARS,34,No,2000000,2048350045,212,11,042000,BX44,40.89380210383,-73.860527872009
DC38226,105029,BRIGHT HORIZONS AT WEST 14TH,GCC,INFANT TODDLER,255 WEST 14 STREET,MANHATTAN,10011,(332) 255-8503,0 YEARS - 2 YEARS,44,Yes,1013712,1007640007,104,03,008100,MN13,40.739195731545,-74.001198051465
DC44584,106724,TICKLE TOES DAY CARE LLC,GCC,PRESCHOOL,450 KENT AVENUE,BROOKLYN,11249,(347) 907-2935,2 YEARS - 5 YEARS,47,No,3387990,3021347502,301,33,054700,BK73,40.708826049734,-73.968471751283
DC14111,7400,EAST SIDE HOUSE SETTLEMENT,GCC,PRESCHOOL,414 MORRIS AVENUE,BRONX,10451,(718) 401-4242,2 YEARS - 5 YEARS,40,No,2097853,2023240001,201,08,005100,BX39,40.815521362643,-73.923922842219
DC36747,104640,wBEES FOREST HOUSE INC.,GCC,PRESCHOOL,20 ST. JOHN'S  ROAD,QUEENS,11385,(929) 457-6717,2 YEARS - 5 YEARS,39,No,4080903,4033910026,405,30,058900,QN20,40.706772833307,-73.907387490493
DC41726,106256,HAPPY MARYANN,GCC,PRESCHOOL,71-66 PARSONS BOULEVARD,QUEENS,11365,(718) 683-5476,2 YEARS - 5 YEARS,39,No,4618096,4067937501,408,24,122702,QN38,40.728508613953,-73.81114950846
DC2259,4204,THE LEARNING TREE,GCC,PRESCHOOL,74-15 JUNIPER BOULEVARD NORTH,QUEENS,11379,(718) 899-2020,2 YEARS - 5 YEARS,75,No,4067020,4029300012,405,30,066501,QN21,40.721230744971,-73.884513082036
DC1942,2085,EAST SIDE HOUSE SETTLEMENT,GCC,PRESCHOOL,200 ALEXANDER AVENUE,BRONX,10454,(718) 292-5335,2 YEARS - 5 YEARS,45,No,2091097,2022980040,201,08,002300,BX39,40.808745994158,-73.926079979867
DC42079,106557,EAST SIDE HOUSE SETTLEMENT,GCC,INFANT TODDLER,705 CONCOURSE VILLAGE WEST,BRONX,10451,(718) 292-5335,0 YEARS - 2 YEARS,8,No,2128884,2024587501,204,16,005902,BX14,40.821864592259,-73.924114282331
DC43413,106709,LITTLE SCHOLARS LEARNING CENTER VII,GCC,PRESCHOOL,600 6 AVENUE,MANHATTAN,10011,(212) 255-6911,2 YEARS - 5 YEARS,12,No,1015407,1008197502,105,03,005400,MN13,40.739511287295,-73.995251074624
DC39266,105294,THE LEARNING EXPERIENCE,GCC,PRESCHOOL,814 AMSTERDAM AVENUE,MANHATTAN,10025,(212) 316-0928,2 YEARS - 5 YEARS,128,No,1056462,1018717503,107,07,018700,MN12,40.796441583372,-73.968632351453
DC44077,106571,LIL TOTS EARLY CHILDHOOD CENTER LLC,GCC,PRESCHOOL,1759 BAY RIDGE PARKWAY,BROOKLYN,11204,(718) 709-9594,2 YEARS - 5 YEARS,106,No,3159647,3062157501,311,43,026400,BK28,40.613951596724,-73.996909662281
DC2564,N/A,PARK EAST PRESCHOOL,SBCC,PRESCHOOL,164 EAST 68 STREET,MANHATTAN,10065,(212) 737-6900,3 YEARS - 5 YEARS,124,No,1042477,1014020042,108,04,012000,MN40,40.767405917845,-73.963032337705
DC39345,105471,The Reggio Emilia Montessori Center,GCC,PRESCHOOL,1331 FLATBUSH AVENUE,BROOKLYN,11226,(347) 240-2648,2 YEARS - 5 YEARS,20,No,3120356,3052110060,317,45,079000,BK95,40.638650866555,-73.953807864577
DC43192,106712,BUILDING BRILLIANCE DAY CARE II INC.,GCC,INFANT TODDLER,1-14 56 AVENUE,QUEENS,11101,(718) 750-1001,0 YEARS - 2 YEARS,10,No,4619856,4000067503,402,26,000100,QN31,40.739600814118,-73.96097287317
DC34184,103794,BASIC TRUST,GCC,PRESCHOOL,127 WEST  94  STREET,MANHATTAN,10025,(212) 222-6602,2 YEARS - 5 YEARS,15,No,1032559,1012250021,107,07,018100,MN12,40.792017294101,-73.969551755691
DC14287,7157,CATHEDRAL CHURCH OF ST. JOHN THE DIVINE IN THE CITY AND DIOCESES OF NEW YORK,GCC,PRESCHOOL,1047 AMSTERDAM AVENUE,MANHATTAN,10025,(212) 316-7530,2 YEARS - 5 YEARS,27,No,1082706,1018650001,109,07,019701,MN09,40.804026414418,-73.963073326975
DC37363,105134,AMAZING KIDS LEARNING CENTER,GCC,PRESCHOOL,2331 EASTCHESTER ROAD,BRONX,10469,(718) 654-5437,2 YEARS - 5 YEARS,91,No,2050818,2043920040,211,13,031400,BX31,40.860002990538,-73.843083508048
DC2039,4639,COMMUNITY PARENTS HEAD START,GCC,PRESCHOOL,90 CHAUNCEY STREET,BROOKLYN,11233,(718) 771-4002,2 YEARS - 5 YEARS,40,No,3325183,3016910012,303,36,029700,BK61,40.680271879258,-73.930444847891
DC41888,105920,BARBEY PREP INC.,GCC,PRESCHOOL,683 BARBEY ST,BROOKLYN,11207,(347) 392-3232,2 YEARS - 5 YEARS,51,No,3398467,3040917501,305,42,112400,BK82,40.665584336845,-73.885673153878
DC2035,5349,"NEW LIFE DAY CARE CENTER, INC.",GCC,PRESCHOOL,406-408 GROVE STREET,BROOKLYN,11237,(718) 417-4214,2 YEARS - 5 YEARS,105,No,3397530,3033290016,304,37,044100,BK77,40.701180558966,-73.912895239822
DC2213,105288,IMAGINE EARLY LEARNING CENTER LLC,GCC,INFANT TODDLER,26 FEDERAL PLAZA,MANHATTAN,10007,(212) 264-4277,0 YEARS - 2 YEARS,34,No,1001674,1001560050,101,01,003100,MN24,40.716007857186,-74.004743636969
DC20001,8023,"URBAN STRATEGIES, INC.",GCC,PRESCHOOL,675 LINCOLN AVENUE,BROOKLYN,11208,(718) 235-1215,2 YEARS - 5 YEARS,40,No,3095889,3042710005,305,42,120800,BK82,40.672667021292,-73.86643561352
DC981,4780,LA PENINSULA  COMMUNITY  ORGANIZATION  HEAD START PROGRAM 2,GCC,PRESCHOOL,1054 INTERVALE AVENUE,BRONX,10459,(718) 893-5074,2 YEARS - 5 YEARS,38,No,2005481,2027050009,202,17,013100,BX33,40.824815891086,-73.896838079211
DC414,4264,"Saint Peterâ€™s Evangelical Lutheran Church, in the Borough of Brooklyn, City of New York",GCC,PRESCHOOL,105-109 HIGHLAND PLACE,BROOKLYN,11208,(718) 647-1014,2 YEARS - 5 YEARS,93,No,3398192,3039300016,305,37,117400,BK83,40.682658093863,-73.881482998432
DC21684,8352,"AFRO-AMERICAN PARENTS EDUCATIONAL CENTER, INC.",GCC,PRESCHOOL,108-17 159TH STREET,QUEENS,11433,(718) 526-3068,2 YEARS - 5 YEARS,52,No,4457481,4101480001,412,28,025400,QN01,40.695006134255,-73.793772745663
DC43845,106616,PLAYTO PACIFIC LLC,GCC,PRESCHOOL,979 PACIFIC STREET,BROOKLYN,11238,(929) 271-3068,2 YEARS - 5 YEARS,12,No,3418381,3011257501,308,35,030500,BK61,40.679594716621,-73.961152339316
DC43897,106615,GREENPOINT CHILDCARE LLC,GCC,PRESCHOOL,145 WEST STREET,BROOKLYN,11222,(718) 684-9139,2 YEARS - 5 YEARS,10,No,,3,301,33,056300,BK76,40.732050216785,-73.961713385404
DC37937,105041,BUNNYHILL BABIES LLC,GCC,INFANT TODDLER,46-04 VERNON BOULEVARD,QUEENS,11101,(718) 361-8326,0 YEARS - 2 YEARS,50,No,4618965,4000270046,402,26,000700,QN31,40.746670992859,-73.95279073124
DC10665,7231,"TENDER YEAR CHILDCARE, INC.",GCC,INFANT TODDLER,3141 EAST TREMONT AVENUE,BRONX,10461,(718) 829-3067,0 YEARS - 2 YEARS,8,No,2073698,2053560001,210,13,018400,BX52,40.837838456075,-73.834700991129
DC43418,106563,"THE INSPIRED COMMUNITY PROJECT, INC.",GCC,PRESCHOOL,3681 BRUCKNER BOULEVARD,BRONX,10461,(212) 904-0773,2 YEARS - 5 YEARS,40,No,2047464,2042390025,210,13,030000,BX10,40.85241858338,-73.827283273291
DC169,4348,BEDFORD STUYVESANT EARLY CHILDHOOD DEVELOPMENT CENTER INC.,GCC,PRESCHOOL,133 KINGSBOROUGH  1ST WALK,BROOKLYN,11233,(718) 453-0828,2 YEARS - 5 YEARS,18,No,3324601,3013440001,308,41,030700,BK61,40.675359457704,-73.927198170354
DC42145,106112,NURTURY 58 INC.,GCC,PRESCHOOL,5816 13 AVENUE,BROOKLYN,11219,(718) 724-3523,2 YEARS - 5 YEARS,40,No,3140724,3057040045,312,44,019200,BK88,40.62983567751,-73.997521374899
DC37552,104682,HAPPY LITTLE BEAR DAY CARE LLC,GCC,PRESCHOOL,94-25 57 AVENUE,QUEENS,11373,(929) 296-0087,2 YEARS - 5 YEARS,49,No,4047077,4019020010,404,25,068300,QN29,40.736310743193,-73.86699675696
DC25653,55817,"LITTLE MUNCHKINS PLAYGROUP 56, INC.",GCC,INFANT TODDLER,1460 56TH STREET,BROOKLYN,11219,(718) 437-7261,0 YEARS - 2 YEARS,71,No,3140136,3056920026,312,44,024000,BK88,40.628992824929,-73.992726336278
DC1187,7006,82ND STREET ACADEMICS,GCC,PRESCHOOL,81-10 35 AVENUE,QUEENS,11372,(718) 457-0429,2 YEARS - 5 YEARS,157,No,4029684,4012810001,403,25,028300,QN28,40.751695801742,-73.885405692351
DC1619,5826,"HOSTOS COMMUNITY COLLEGE CHILDREN'S CENTER, INC.",GCC,PRESCHOOL,475 GRAND CONCOURSE,BRONX,10451,(718) 518-4176,2 YEARS - 5 YEARS,55,No,2001038,2023460029,201,17,006300,BX63,40.817947347351,-73.927597966769
DC35096,104175,WEILL CORNELL CHILDREN'S CENTER AT EAST 62ND,GCC,INFANT TODDLER,315 EAST  62  STREET,MANHATTAN,10065,(646) 582-2966,0 YEARS - 2 YEARS,18,Yes,1044361,1014370007,108,05,011000,MN31,40.762270287533,-73.962450404385
DC44863,N/A,TALMUD TORAH,SBCC,PRESCHOOL,4109 16 AVENUE,BROOKLYN,11204,(718) 434-7300,3 YEARS - 5 YEARS,NO DATA,No,3126466,3053810006,312,39,047800,BK88,40.635277044892,-73.981073715826
DC841,6367,TENDER YEARS CHILDCARE INC.,GCC,PRESCHOOL,3141 EAST TREMONT AVENUE,BRONX,10461,(718) 829-3067,2 YEARS - 5 YEARS,22,No,2073698,2053560001,210,13,018400,BX52,40.837838456075,-73.834700991129
DC41797,106740,BOOK SMART EARLY LEARNING CHILD CARE CORP.,GCC,PRESCHOOL,134-12 LINDEN BOULEVARD,QUEENS,11420,(516) 589-5794,2 YEARS - 5 YEARS,15,No,4251893,4116600011,410,28,017400,QN55,40.682379594221,-73.807667926085
DC349,4476,"THE NEW LIFE CHILD DEVELOPMENT CENTER, INC",GCC,PRESCHOOL,295 WOODBINE STREET,BROOKLYN,11237,(718) 821-3432,2 YEARS - 5 YEARS,105,Yes,3076869,3033620055,304,37,043500,BK77,40.696404688497,-73.912941172384
DC43644,106727,"THE LEARNING EXPERIENCE - SI, ST. GEORGE",GCC,PRESCHOOL,35A BAY STREET,STATEN ISLAND,10301,(718) 981-4001,2 YEARS - 5 YEARS,24,No,5166155,5000017504,501,49,000300,SI22,40.641492463258,-74.075733844245
DC44477,106639,KUEI LUCK EARLY CHILDHOOD CENTER LLC,GCC,INFANT TODDLER,132 WEST 112 STREET,MANHATTAN,10026,(718) 679-9919,0 YEARS - 2 YEARS,10,No,1087384,1018210055,110,09,021600,MN11,40.8001554817,-73.953240261076
DC1569,6675,BISHOP SEXTON HEAD START,GCC,PRESCHOOL,933 HERKIMER STREET,BROOKLYN,11233,(718) 778-0292,2 YEARS - 5 YEARS,97,No,3329595,3017040025,303,41,029900,BK61,40.678161537432,-73.922497426631
DC44249,106741,ALEPH ELC,GCC,PRESCHOOL,1419 DORCHESTER ROAD,BROOKLYN,11226,(646) 245-5004,2 YEARS - 5 YEARS,12,No,3118688,3051570035,314,40,052000,BK42,40.638964898018,-73.964689153126
DC38114,104903,"TLE AT QUEENS-LONG ISLAND CITY, LLC",GCC,PRESCHOOL,27-28 THOMSON AVENUE,QUEENS,11101,(718) 433-4007,2 YEARS - 5 YEARS,110,No,4000697,4000827501,402,26,001900,QN31,40.746188471565,-73.942029127028
DC26046,51758,SCO FAMILY OF SERVICES,GCC,INFANT TODDLER,411 THATFORD AVENUE,BROOKLYN,11212,(929) 234-6870,0 YEARS - 2 YEARS,20,No,3082389,3036040001,316,41,091800,BK81,40.660298257452,-73.907354945299
DC21490,8365,"DISCOVERY LANE, LLC",GCC,PRESCHOOL,27-17 27 STREET,QUEENS,11102,(347) 242-2315,2 YEARS - 5 YEARS,50,No,4006902,4005757501,401,22,007100,QN71,40.769414609405,-73.923286160363
DC33188,96197,PARSONS PRESCHOOL,GCC,PRESCHOOL,85-27 91 STREET,QUEENS,11421,(718) 464-5606,2 YEARS - 5 YEARS,162,Yes,4182252,4088750001,409,32,001400,QN53,40.695826597603,-73.854456000699
DC42607,106094,LITTLE ROSES LLC,GCC,PRESCHOOL,1121 36 STREET,BROOKLYN,11218,(718) 269-0044,2 YEARS - 5 YEARS,30,No,3429344,3053027501,312,39,049800,BK41,40.644258889182,-73.987842011876
DC42073,105973,"BIG MINDS, TINY HANDS",GCC,PRESCHOOL,8810 AVENUE J,BROOKLYN,11236,(917) 450-1306,2 YEARS - 5 YEARS,39,No,3425911,3080400037,318,46,099400,BK50,40.637709888938,-73.905447968847
DC22324,28638,BAIS FRIEDA CHILD CARE,GCC,PRESCHOOL,1326 EAST 10TH STREET,BROOKLYN,11230,(718) 975-2644,2 YEARS - 5 YEARS,54,No,3173091,3065720017,312,44,045400,BK46,40.616663524955,-73.964668578329
DC32837,87978,HAPPY DAYS AT RIVERDALE,GCC,PRESCHOOL,2975 INDEPENDENCE AVENUE,BRONX,10463,(718) 601-1300,2 YEARS - 5 YEARS,40,No,2100381,2057500390,208,11,030100,BX29,40.882886325753,-73.917343136408
DC43997,106625,SUNNY TOTS BROOKLYN INC.,GCC,INFANT TODDLER,330 WALLABOUT STREET,BROOKLYN,11206,(718) 596-3632,0 YEARS - 2 YEARS,156,No,3000000,3022657503,301,33,050700,BK75,40.700922667723,-73.949750506118
DC2261,4715,"LES ENFANTS MONTESSORI SCHOOL,INC.",GCC,PRESCHOOL,29-21 NEWTOWN AVENUE,QUEENS,11102,(718) 626-9549,2 YEARS - 5 YEARS,78,No,4007749,4005970005,401,22,006900,QN71,40.768546006543,-73.92142430845
DC3053,4821,"TEACHERS COLLEGE, COLUMBIA UNIVERSITY",GCC,INFANT TODDLER,525 WEST 120 STREET  BOX 98,MANHATTAN,10027,(212) 678-3013,0 YEARS - 2 YEARS,9,No,1088704,1019750001,109,07,020300,MN09,40.80970978625,-73.96008990936
DC14450,6638,TEACHERS COLLEGE,GCC,PRESCHOOL,525 WEST 120TH STREET BOX 98,MANHATTAN,10027,(212) 678-3013,2 YEARS - 5 YEARS,27,No,1088704,1019750001,109,07,020300,MN09,40.80970978625,-73.96008990936
DC40917,106629,OCEAN HILL PREPARATORY INCORPORATED,GCC,PRESCHOOL,1903 FULTON STREET,BROOKLYN,11233,(718) 644-1839,2 YEARS - 5 YEARS,21,Yes,3041576,3015300013,303,41,037900,BK35,40.678799596782,-73.920347917772
DC43804,106630,Winny's Happy Apple Place LLC,GCC,INFANT TODDLER,992 LORIMER STREET,BROOKLYN,11222,(929) 734-5292,0 YEARS - 2 YEARS,10,No,3065591,3026197501,301,33,056100,BK76,40.725632403267,-73.95286341815
DC43805,106631,Winny's Happy Apple Place LLC,GCC,PRESCHOOL,992 LORIMER STREET,BROOKLYN,11222,(929) 734-5292,2 YEARS - 5 YEARS,12,No,3065591,3026197501,301,33,056100,BK76,40.725632403267,-73.95286341815
DC43500,106636,LA MATERNELLE WEST55 LLC,GCC,INFANT TODDLER,400 WEST 55 STREET,MANHATTAN,10019,(929) 248-2933,0 YEARS - 2 YEARS,18,No,1026797,1010640036,104,03,013900,MN15,40.766782596466,-73.987093930902
DC3109,7083,"BLANCHE COMMUNITY PROGRESS DAY CARE CENTER , INC.",GCC,PRESCHOOL,44-02 BEACH CHANNEL DRIVE,QUEENS,11691,(718) 471-7881,2 YEARS - 5 YEARS,176,No,4463476,4159670001,414,31,097203,QN12,40.595660535705,-73.775860645738
DC40938,106232,THE LEARNING EXPERIENCE,GCC,INFANT TODDLER,600 BUSHWICK AVENUE,BROOKLYN,11206,(718) 443-7037,0 YEARS - 2 YEARS,46,No,3072011,3031607503,304,34,038900,BK78,40.698510522908,-73.934454071921
DC37586,104743,"OXBRIDGE DEVELOPMENT CENTER, LLC",GCC,PRESCHOOL,87-22 51 AVENUE,QUEENS,11373,(718) 271-0200,2 YEARS - 5 YEARS,86,No,4618214,4018377502,404,25,047300,QN29,40.73898061828,-73.876103073755
DC43498,106635,LA MATERNELLE WEST55 LLC,GCC,PRESCHOOL,400 WEST 55 STREET,MANHATTAN,10019,(929) 248-2933,2 YEARS - 5 YEARS,9,No,1026797,1010640036,104,03,013900,MN15,40.766782596466,-73.987093930902
DC41301,106250,BUNNY HILL,GCC,PRESCHOOL,213 WEST STREET,BROOKLYN,11222,(917) 862-1201,2 YEARS - 5 YEARS,41,No,3000000,3024720002,301,33,056300,BK76,40.734426605476,-73.960019707996
DC1370,4440,"SOUTH SHORE TODDLER ACADEMY AND PRE ""K""",GCC,PRESCHOOL,11 SAMPSON AVENUE,STATEN ISLAND,10308,(718) 356-3563,2 YEARS - 5 YEARS,47,No,5062569,5046240500,503,51,014605,SI54,40.552611837724,-74.149804499458
DC43586,106560,CUDDLESOME INC.,GCC,PRESCHOOL,5507 11 AVENUE,BROOKLYN,11219,(347) 628-8847,2 YEARS - 5 YEARS,21,No,3139663,3056820007,312,44,021600,BK88,40.634205398516,-74.000118895356
DC43344,106640,NURTURY 58 INC.,GCC,INFANT TODDLER,5816 13 AVENUE,BROOKLYN,11219,(718) 724-3523,0 YEARS - 2 YEARS,20,No,3140724,3057040045,312,44,019200,BK88,40.62983567751,-73.997521374899
DC32511,96397,LIL INVENTORS CHILD CARE,GCC,PRESCHOOL,75 WEST 190TH  STREET,BRONX,10468,(718) 975-7225,2 YEARS - 5 YEARS,74,No,2014648,2032140001,207,14,026500,BX30,40.865042476209,-73.902820462101
DC12269,1548,THE MADISON AVENUE PRESBYTERIAN CHURCH,GCC,PRESCHOOL,921 MADISON AVENUE,MANHATTAN,10021,(212) 288-9638,2 YEARS - 5 YEARS,106,No,1090474,1013880021,108,04,013000,MN40,40.772714812831,-73.964737104338
DC41295,106249,Bunny Hill,GCC,INFANT TODDLER,213 WEST STREET,BROOKLYN,11222,(917) 862-1201,0 YEARS - 2 YEARS,38,No,3000000,3024720002,301,33,056300,BK76,40.734426605476,-73.960019707996
DC39919,105269,NY KIDS CLUB,GCC,PRESCHOOL,299 COURT ST,BROOKLYN,11231,(917) 363-8153,2 YEARS - 5 YEARS,27,No,3006636,3004140002,306,39,007500,BK33,40.683943430078,-73.995121640454
DC2282,6867,BRIGHT HORIZONS  CHILDREN'S CENTERS LLC,GCC,INFANT TODDLER,18 EAST 48 STREET,MANHATTAN,10017,(212) 644-3206,0 YEARS - 2 YEARS,14,No,1035422,1012830058,105,04,009400,MN17,40.756853252561,-73.977126287549
DC42266,106519,MY LITTLE SPROUTS CHILD CARE L.L.C.,GCC,PRESCHOOL,647 ROGERS AVENUE,BROOKLYN,11226,(718) 284-0172,2 YEARS - 5 YEARS,NO DATA,No,3116048,3050570007,309,40,082000,BK60,40.655701117542,-73.952999517081
DC14281,6151,"BETHEL EMANUEL TEMPLE, INC.",GCC,PRESCHOOL,338 BEACH 56 STREET,QUEENS,11692,(718) 474-8618,2 YEARS - 5 YEARS,39,No,4436422,4158920001,414,31,097204,QN12,40.593495297976,-73.786115522234
DC44000,106569,Sunny Tots Brooklyn Inc.,GCC,PRESCHOOL,330 WALLABOUT STREET,BROOKLYN,11206,(718) 596-3632,2 YEARS - 5 YEARS,315,No,3000000,3022657503,301,33,050700,BK75,40.700922667723,-73.949750506118
DC20062,8178,"3467 READY, SET,  LEARN L L C",GCC,PRESCHOOL,3463-67 3 AVENUE,BRONX,10456,(718) 665-1234,2 YEARS - 5 YEARS,167,No,2098317,2023720041,203,16,014500,BX01,40.829830494319,-73.906406116961
DC44027,106719,LADYBUG PRESCHOOL,GCC,PRESCHOOL,299 PACIFIC STREET,BROOKLYN,11201,(347) 581-1891,2 YEARS - 5 YEARS,18,No,3000861,3001820048,302,33,004300,BK38,40.687609987807,-73.988623744281
DC23255,30038,BRIGHT HORIZONS CHILDREN'S CENTERS LLC,GCC,INFANT TODDLER,910 9TH AVENUE,MANHATTAN,10019,(212) 399-3919,0 YEARS - 2 YEARS,18,No,1082934,1010490001,104,06,014500,MN14,40.768725643649,-73.985107945644
DC38045,105034,CHILDREN'S HOUSE MONTESSORI INC.,GCC,PRESCHOOL,35-19 LEAVITT STREET CF2,QUEENS,11354,(646) 897-0038,2 YEARS - 5 YEARS,52,No,4614610,4049617503,407,20,086900,QN22,40.764443455509,-73.828866033294
DC43172,106618,KUEI LUCK EARLY CHILDHOOD CENTER,GCC,PRESCHOOL,171 CALYER STREET,BROOKLYN,11222,(718) 971-5678,2 YEARS - 5 YEARS,5,No,3427354,3025737501,301,33,056100,BK76,40.727919224125,-73.953922539386
DC26004,85697,MANHATTAN SCHOOLHOUSE LLC,GCC,INFANT TODDLER,1624 FIRST AVENUE,MANHATTAN,10028,(212) 772-2066,0 YEARS - 2 YEARS,52,No,1050520,1015640047,108,05,014401,MN32,40.775794509016,-73.950148723523
DC31876,96577,CIDITTY KIDDIE CORPORATION,GCC,PRESCHOOL,1700 SEWARD AVENUE,BRONX,10473,(917) 801-4710,2 YEARS - 5 YEARS,55,No,2092649,2035510001,209,18,002000,BX09,40.81848999293,-73.868056656608
DC32641,96537,"LITTLE SCHOLARS EARLY DEVELOPMENT CENTER, LLC",GCC,PRESCHOOL,1770 DAVIDSON AVENUE,BRONX,10453,(347) 789-3091,2 YEARS - 5 YEARS,89,No,2008369,2028610114,205,14,021700,BX36,40.848765924602,-73.912722919925
DC35608,105418,"Union Settlement Association, Inc",GCC,PRESCHOOL,2211 FIRST AVENUE,MANHATTAN,10029,(212) 828-6080,2 YEARS - 5 YEARS,47,No,1081091,1016840001,111,08,018000,MN34,40.794504244032,-73.936508095723
DC43998,N/A,QUEENS CHEDER MRM,SBCC,PRESCHOOL,17353 CROYDON RD,QUEENS,11432,(929) 525-8338,3 YEARS - 5 YEARS,NO DATA,No,4211441,4098920016,408,24,045800,QN06,40.71705446287,-73.790482857233
DC40137,105606,DWIGHT PRESCHOOL,GCC,INFANT TODDLER,180 RIVERSIDE BLVD,MANHATTAN,10069,(212) 724-6360,0 YEARS - 2 YEARS,30,Yes,1085805,1011710129,107,06,015500,MN14,40.778390316847,-73.98850346436
DC40283,106497,BUMBLEBEES-R-US INC.,GCC,INFANT TODDLER,1068 FULTON STREET,BROOKLYN,11238,(718) 676-0080,0 YEARS - 2 YEARS,30,No,3422360,3020160012,303,36,022700,BK69,40.681633023172,-73.958136980909
DC34498,103834,RIVER SCHOOL WESTSIDE,GCC,INFANT TODDLER,75 WEST END AVE,MANHATTAN,10023,(212) 707-8300,0 YEARS - 2 YEARS,40,No,1088686,1011710063,107,06,015100,MN14,40.774212871721,-73.98923711854
DC40286,105492,"Grand Street Settlement, Inc.",GCC,PRESCHOOL,1825 ATLANTIC AVE,BROOKLYN,11233,(929) 297-6637,2 YEARS - 5 YEARS,79,Yes,3397596,3017107501,303,41,029900,BK61,40.677148051125,-73.925638755416
DC43954,106454,"BROOKLYN CHINESE AMERICAN ASSOCIATION, INC",GCC,PRESCHOOL,5211 8  AVENUE,BROOKLYN,11220,(718) 437-8788,2 YEARS - 5 YEARS,37,No,3138444,3056580006,312,43,010600,BK34,40.639859540888,-74.004994029709
DC2226,6094,ALL MY CHILDREN DAY CARE AND NURSERY SCHOOL,GCC,PRESCHOOL,169-07 JEWEL AVENUE,QUEENS,11365,(718) 454-5600,2 YEARS - 5 YEARS,29,No,4149982,4069400029,408,24,122300,QN38,40.731492997784,-73.800287615601
DC43307,106420,"KA of Flushing, LLC",GCC,PRESCHOOL,33-25 PARSONS BOULEVARD,QUEENS,11354,(718) 888-9499,2 YEARS - 5 YEARS,180,No,4112700,4049820004,407,20,115900,QN51,40.767749204774,-73.824117380449
DC23087,26277,"Mid-Bronx CCRP Early Childhood Center, Inc.",GCC,PRESCHOOL,100-120 EAST MOUNT EDEN AVENUE,BRONX,10452,(718) 684-4790,2 YEARS - 5 YEARS,198,No,2008017,2028370011,204,16,020900,BX63,40.843534529205,-73.912816552462
DC22791,42917,NP READY SET LEARN LLC,GCC,PRESCHOOL,830 FOX STREET,BRONX,10459,(718) 484-8210,2 YEARS - 5 YEARS,85,Yes,2120355,2027210010,202,17,008900,BX27,40.817569220656,-73.896231557452
DC14857,6390,ASSOCIATION TO BENEFIT CHILDREN,GCC,PRESCHOOL,419 EAST 86TH STREET,MANHATTAN,10028,(212) 845-3821,2 YEARS - 5 YEARS,112,Yes,1083281,1015660008,108,05,014402,MN32,40.776515654092,-73.948505349679
DC24589,52617,THE MONTESSORI AT FLATIRON,GCC,PRESCHOOL,5 WEST 22ND STREET,MANHATTAN,10010,(212) 633-0600,2 YEARS - 5 YEARS,146,Yes,1015559,1008240032,105,03,005800,MN13,40.741122179641,-73.990639049062
DC37525,104800,"NORTHSIDE CENTER FOR CHILD DEVELOPMENT, INC.",GCC,PRESCHOOL,25 CHAPEL STREET,BROOKLYN,11201,(347) 505-5501,2 YEARS - 5 YEARS,61,No,3335884,3001180006,302,33,001300,BK38,40.697246597436,-73.986014731837
DC40684,106323,SEAMEN'S SOCIETY FOR CHILDREN AND FAMILIES,GCC,PRESCHOOL,95 CENTRAL AVENUE,STATEN ISLAND,10301,(929) 425-4195,2 YEARS - 5 YEARS,30,No,5106474,5000050013,501,49,000300,SI22,40.639290716187,-74.076383508889
DC37427,104801,"NORTHSIDE CENTER FOR CHILD DEVELOPMENT, INC.",GCC,INFANT TODDLER,25 CHAPEL STREET,BROOKLYN,11201,(347) 505-5501,0 YEARS - 2 YEARS,24,No,3335884,3001180006,302,33,001300,BK38,40.697246597436,-73.986014731837
DC23219,26217,B' Above World Wide Institute Inc.,GCC,PRESCHOOL,137-37 FARMERS BLVD.,QUEENS,11434,(718) 528-8751,2 YEARS - 5 YEARS,93,No,4280110,4130210023,412,31,033000,QN02,40.673138554387,-73.763951465089
DC44309,106660,New Generation Daycare Staten Island Inc.,GCC,PRESCHOOL,389 SEAVER AVENUE,STATEN ISLAND,10305,(718) 987-7596,2 YEARS - 5 YEARS,50,No,5126957,5036600038,502,50,011201,SI36,40.581138778114,-74.092473623674
DC37501,104744,65TH STREET DAYCARE INC.,GCC,PRESCHOOL,1502 WEST 1 STREET,BROOKLYN,11204,(718) 645-1200,2 YEARS - 5 YEARS,108,No,3174624,3066057502,311,44,043400,BK29,40.609867466009,-73.975242800518
DC40112,105434,TINY TUNES DAYCARE EVERGREEN,GCC,PRESCHOOL,1144 EVERGREEN AVENUE,BRONX,10472,(347) 271-3927,2 YEARS - 5 YEARS,60,No,2127944,2037387501,209,17,005002,BX55,40.827007039115,-73.880700961912
DC36764,104672,"JEWISH CONTINUITY ASSOCIATION, INC.",GCC,PRESCHOOL,4315 16TH AVE,BROOKLYN,11204,(718) 438-3535,2 YEARS - 5 YEARS,138,No,3421702,3053790004,312,44,047800,BK88,40.634242434869,-73.982151274988
DC31728,79237,"A HOUSE ON BEEKMAN, INC.",GCC,PRESCHOOL,390 JACKSON AVENUE,BRONX,10454,(845) 470-2366,2 YEARS - 5 YEARS,40,No,2003865,2025730071,201,08,003500,BX39,40.809127449719,-73.910553474534
DC44025,106718,LADYBUG PRESCHOOL,GCC,INFANT TODDLER,299 PACIFIC STREET,BROOKLYN,11201,(347) 581-1891,0 YEARS - 2 YEARS,16,No,3000861,3001820048,302,33,004300,BK38,40.687609987807,-73.988623744281
DC40157,105705,THE HOLLOW,GCC,PRESCHOOL,425 ROGERS AVE,BROOKLYN,11225,(301) 442-8868,2 YEARS - 5 YEARS,39,No,3035017,3013200001,309,40,032900,BK60,40.66233004796,-73.953708502532
DC43923,106663,TONG HUA CHILDCARE INC.,GCC,PRESCHOOL,64-16 WETHEROLE STREET,QUEENS,11374,(516) 979-8088,2 YEARS - 5 YEARS,31,No,4072479,4030960079,406,30,069300,QN18,40.727359527471,-73.861905834326
DC43968,106626,BAYBEEHIVE DEKALB LLC,GCC,INFANT TODDLER,500 DEKALB AVENUE,BROOKLYN,11205,(718) 500-3499,0 YEARS - 2 YEARS,73,No,3055395,3019410020,303,36,023300,BK75,40.690750605644,-73.956634762148
DC31701,85677,KID'S CANVAS,GCC,PRESCHOOL,1433 DEKALB AVENUE,BROOKLYN,11237,(718) 406-4100,2 YEARS - 5 YEARS,31,Yes,3423703,3032350042,304,37,042900,BK77,40.700347978119,-73.923131520572
DC39358,105244,"A CHILD'S PLACE TOO, INC.",GCC,PRESCHOOL,7501 31ST AVE,QUEENS,11370,(718) 565-2170,2 YEARS - 5 YEARS,70,No,4439601,4011240001,403,25,030903,QN28,40.758564468075,-73.892389321935
DC39987,105617,KINDERCARE EDUCATION LLC,GCC,PRESCHOOL,112 ATLANTIC AVE,BROOKLYN,11201,(718) 260-8186,2 YEARS - 5 YEARS,45,No,3425134,3002857502,306,39,004500,BK33,40.69066541397,-73.995954121696
DC14436,7127,"CANDY KID'S DAY CARE CENTER, LLC",GCC,PRESCHOOL,3212 CHURCH AVENUE,BROOKLYN,11226,(718) 287-6200,2 YEARS - 5 YEARS,87,No,3109326,3048860005,317,40,082400,BK95,40.650895329521,-73.947424241131
DC14417,4121,THE SALVATION ARMY,GCC,PRESCHOOL,280 RIVERDALE AVENUE,BROOKLYN,11212,(718) 345-2488,2 YEARS - 5 YEARS,40,No,3082390,3036050010,316,41,091800,BK81,40.661356741038,-73.906124381523
DC25906,59939,YORK COLLEGE CHILD AND FAMILY CENTER INC,GCC,INFANT TODDLER,94-12 160 STREET,QUEENS,11433,(718) 262-2930,0 YEARS - 2 YEARS,10,No,4439752,4101030016,412,27,024600,QN61,40.702295709724,-73.798085234013
DC35101,104176,WEILL CORNELL CHILDREN'S CENTER AT EAST 62ND,GCC,PRESCHOOL,315 EAST  62  STREET,MANHATTAN,10065,(646) 582-2966,2 YEARS - 5 YEARS,56,Yes,1044361,1014370007,108,05,011000,MN31,40.762270287533,-73.962450404385
DC33859,103622,"THE FRIENDS OF CROWN HEIGHTS EDUCATIONAL CENTERS, INC.",GCC,PRESCHOOL,34-52 KOSCIUSZKO STREET,BROOKLYN,11205,(718) 638-3209,2 YEARS - 5 YEARS,180,No,3049719,3017830023,303,36,024100,BK75,40.690345967361,-73.953678159403
DC14816,6216,BRIGHT HORIZONS AT BROAD STREET,GCC,PRESCHOOL,125 BROAD STREET,MANHATTAN,10004,(212) 487-9035,2 YEARS - 5 YEARS,15,No,1000006,1000057501,101,01,000900,MN25,40.702105144441,-74.011248902165
DC22429,21237,KIDZ WORLD EARLY CHILDHOOD CENTER INC.,GCC,INFANT TODDLER,217-21 MERRICK BLVD.,QUEENS,11413,(718) 276-7649,0 YEARS - 2 YEARS,22,No,4279204,4129560029,413,31,062600,QN66,40.679710521953,-73.751417474496
DC2783,6215,BRIGHT HORIZONS AT BROAD STREET,GCC,INFANT TODDLER,125 BROAD STREET,MANHATTAN,10004,(212) 487-9035,0 YEARS - 2 YEARS,12,No,1000006,1000057501,101,01,000900,MN25,40.702105144441,-74.011248902165
DC22401,21317,KIDZ WORLD EARLY CHILDHOOD CENTER INC.,GCC,PRESCHOOL,217-21 MERRICK BLVD.,QUEENS,11413,(718) 276-7649,2 YEARS - 5 YEARS,118,No,4279204,4129560029,413,31,062600,QN66,40.679710521953,-73.751417474496
DC375,375,COLONY-SOUTH BROOKLYN HOUSES. INCORPORATED,GCC,PRESCHOOL,720 EUCLID AVENUE,BROOKLYN,11208,(718) 647-2274,2 YEARS - 5 YEARS,40,No,3337053,3042920061,305,42,121000,BK82,40.669290045314,-73.870436516154
DC43465,106446,Diversity Academy Child Care 3,GCC,PRESCHOOL,1141 CASTLETON AVENUE,STATEN ISLAND,10310,(718) 210-0123,2 YEARS - 5 YEARS,44,No,5132394,5001970125,501,49,013302,SI22,40.634295931634,-74.120300684778
DC2451,4789,AFRO-AMERICAN PARENTS EDUCATIONAL CENTER INC.,GCC,PRESCHOOL,112-06 SUTPHIN BOULEVARD,QUEENS,11435,(718) 322-9080,2 YEARS - 5 YEARS,97,No,4258993,4119660001,412,28,019000,QN76,40.687349875578,-73.794708778947
DC41447,106037,LITTLE SUNSHINE CENTER 2,GCC,PRESCHOOL,6327 BROADWAY,BRONX,10471,(347) 202-7542,2 YEARS - 5 YEARS,64,No,2130558,2058353055,208,11,035100,BX22,40.899250537858,-73.89715618249
DC24741,23657,"BUMBLEBEES-R-US, INC.",GCC,PRESCHOOL,76 LORRAINE STREET,BROOKLYN,11231,(718) 858-8111,NO DATA,80,No,3338801,3005800016,306,38,005300,BK33,40.674377784633,-74.006885680104
DC36980,104666,METROKIDS CRADLE (SOUTH END) INC.,GCC,PRESCHOOL,25 MARKET  STREET,MANHATTAN,10002,(212) 577-2710,2 YEARS - 5 YEARS,71,No,1077812,1002777501,103,01,000800,MN27,40.712843102591,-73.994448586057
DC43849,106743,THE LEARNING EXPERIENCE,GCC,PRESCHOOL,510 DRIGGS AVENUE,BROOKLYN,11211,(347) 689-2347,2 YEARS - 5 YEARS,12,No,3426626,3023127501,301,33,051700,BK73,40.717986504196,-73.955422911451
DC25205,51958,"SUNNYSIDE COMMUNITY SERVICES, INC.",GCC,PRESCHOOL,43-31 39 STREET,QUEENS,11104,(718) 784-6173,2 YEARS - 5 YEARS,35,Yes,4436677,4001910005,402,26,017900,QN31,40.745182845389,-73.925908980656
DC797,6378,"BIRCH FAMILY SERVICES, INC. / MILL BASIN EARLY CHILDHOOD CENTER",GCC,PRESCHOOL,2075 EAST 68TH STREET,BROOKLYN,11234,(718) 968-7866,2 YEARS - 5 YEARS,63,Yes,3237201,3084090001,318,46,069602,BK45,40.618857061847,-73.910225894331
DC41131,105942,LUMINOUS EARLY CHILD CARE CENTER,GCC,INFANT TODDLER,531 E 137TH STREET,BRONX,10454,(718) 215-4125,0 YEARS - 2 YEARS,41,No,2000053,2022650059,201,08,002500,BX39,40.806545374421,-73.918933779341
DC2046,5927,ASTOR SERVICES FOR CHILDREN & FAMILIES,GCC,PRESCHOOL,4010 DYRE AVENUE,BRONX,10466,(718) 515-3000,2 YEARS - 5 YEARS,40,Yes,2067131,2049700010,212,12,045600,BX03,40.891105693779,-73.831059656347
DC43034,106488,"Congregation Mt. Sinai Anshe Emeth and Emes Wozedek of Washington Heights, INC",GCC,PRESCHOOL,135 BENNETT AVENUE,MANHATTAN,10040,(212) 568-1900,2 YEARS - 5 YEARS,27,No,1075611,1021800309,112,10,027900,MN35,40.854596535438,-73.934578005418
DC17383,8129,"LOLLY'S EARLY CHILDHOOD CENTER, INC.",GCC,PRESCHOOL,5-44 47TH   AVENUE,QUEENS,11101,(718) 729-9071,2 YEARS - 5 YEARS,60,No,4000084,4000290042,402,26,000700,QN31,40.745859488958,-73.955147953894
DC2346,5615,"FOREST HILLS MONTESSORI SCHOOL,INC",GCC,PRESCHOOL,67-04 AUSTIN STREET,QUEENS,11375,(718) 275-0173,2 YEARS - 5 YEARS,40,No,4074971,4031660019,406,29,071100,QN17,40.724000065183,-73.855335862268
DC2991,4319,THE WEST SIDE MONTESSORI SCHOOL,GCC,PRESCHOOL,309 WEST 92 STREET,MANHATTAN,10025,(212) 662-8000,2 YEARS - 5 YEARS,160,No,1034119,1012520012,107,06,017900,MN12,40.792828393197,-73.975380355995
DC11641,6622,"NORTHEAST BRONX DAY CARE CENTER, INC.",GCC,PRESCHOOL,4102 WHITE PLAINS ROAD,BRONX,10466,(718) 547-0501,2 YEARS - 5 YEARS,150,No,2063602,2048430034,212,11,042200,BX44,40.890772581607,-73.858812630583
DC25673,52558,"COMMITTEE FOR EARLY CHILDHOOD DEVELOPMENT DAY CARE CENTER, INCORPORATED",GCC,PRESCHOOL,193-25 JAMAICA AVENUE,QUEENS,11423,(718) 264-6572,2 YEARS - 5 YEARS,100,Yes,4222293,4104580017,412,23,048200,QN07,40.713218365075,-73.766875091241
DC38957,105637,BROOKLYN GLOBAL PREP LLC,GCC,PRESCHOOL,429 KENT AVE,BROOKLYN,11249,(718) 734-2771,2 YEARS - 5 YEARS,45,No,3396741,3021357508,301,33,054700,BK73,40.70931187495,-73.968475127575
DC33787,104318,"BLOOMINGDALE FRIENDS, INC",GCC,INFANT TODDLER,610 BLOOMINGDALE ROAD,STATEN ISLAND,10309,(718) 984-5194,0 YEARS - 2 YEARS,17,No,5086672,5070910001,503,51,022600,SI11,40.540428378971,-74.217714763285
DC39415,105635,BROOKLYN GLOBAL PREP LLC,GCC,INFANT TODDLER,429 KENT AVE,BROOKLYN,11249,(718) 734-2771,0 YEARS - 2 YEARS,50,No,3396741,3021357508,301,33,054700,BK73,40.70931187495,-73.968475127575
DC1795,4879,"BAMBI DAY CARE, INC.",GCC,PRESCHOOL,300 ROGERS AVENUE,BROOKLYN,11225,(718) 771-1603,2 YEARS - 5 YEARS,20,No,3034151,3012950145,309,35,032300,BK63,40.666076647525,-73.953651823071
DC35647,104116,BIG APPLE STARS,GCC,PRESCHOOL,11 NEW LOTS AVE,BROOKLYN,11212,(718) 345-3555,2 YEARS - 5 YEARS,31,No,3326600,3036280001,316,42,092000,BK81,40.656837274983,-73.904242207616
DC43929,106679,Richmond University Medical Center,GCC,PRESCHOOL,129 CLINTON AVENUE,STATEN ISLAND,10301,(718) 816-5168,2 YEARS - 5 YEARS,46,Yes,5174997,5000730020,501,49,008100,SI22,40.641258739257,-74.098001809283
DC36829,104542,LUMINOUS MORRIS LLC,GCC,PRESCHOOL,655 MORRIS AVENUE,BRONX,10451,(718) 682-3650,2 YEARS - 5 YEARS,114,No,2127027,2024410200,201,17,006500,BX34,40.819623295709,-73.921750353814
DC43865,106583,"KIDDIO DAYCARE INC.,",GCC,INFANT TODDLER,1514 60 STREET,BROOKLYN,11219,(718) 799-4200,0 YEARS - 2 YEARS,213,No,3000000,3055160014,312,44,024200,BK88,40.625885786935,-73.993684924898
DC43866,106584,"KIDDIO DAYCARE INC.,",GCC,PRESCHOOL,1514 60 STREET,BROOKLYN,11219,(718) 799-4200,2 YEARS - 5 YEARS,59,No,3000000,3055160014,312,44,024200,BK88,40.625885786935,-73.993684924898
DC36487,104941,SHINING SMILES DAYCARE I INC.,GCC,INFANT TODDLER,882 FULTON ST,BROOKLYN,11238,(929) 227-3100,0 YEARS - 2 YEARS,58,No,3426479,3020117502,302,35,019900,BK69,40.683285241352,-73.966021281608
DC2980,2272,"BIRCH FAMILY SERVICES, INC.",GCC,PRESCHOOL,145-02 FARMERS BOULEVARD,QUEENS,11434,(718) 527-5220,2 YEARS - 5 YEARS,45,No,4285481,4133120015,413,31,030600,QN03,40.666162824867,-73.767379022305
DC36808,104561,SUNSHINE LC OF JACKSON AVE LLC,GCC,PRESCHOOL,609 JACKSON AVENUE,BRONX,10455,(718) 215-1193,2 YEARS - 5 YEARS,78,No,2004435,2026230211,201,08,007300,BX34,40.814848628683,-73.908500962484
DC2124,7299,POSITIVE BEGINNINGS INC.,GCC,PRESCHOOL,72-52 METROPOLITAN AVENUE,QUEENS,11379,(718) 326-0055,2 YEARS - 5 YEARS,140,No,4312146,4036677501,405,30,061900,QN21,40.712651377199,-73.879932495683
DC43846,106742,THE LEARNING EXPERIENCE,GCC,INFANT TODDLER,510 DRIGGS AVENUE,BROOKLYN,11211,(347) 689-2347,0 YEARS - 2 YEARS,28,No,3426626,3023127501,301,33,051700,BK73,40.717986504196,-73.955422911451
DC41929,106151,"ESCUELA COMUNITARIA DEL BRONX/BRONX COMMUNITY SCHOOL, INC.",GCC,PRESCHOOL,3480 THIRD AVENUE,BRONX,10456,(917) 817-3703,2 YEARS - 5 YEARS,115,No,2118328,2026097501,203,16,014500,BX01,40.830162466158,-73.906232198105
DC43297,106744,THE WEST SIDE MONTESSORI SCHOOL,GCC,PRESCHOOL,212 WEST 95 STREET,MANHATTAN,10025,(212) 662-0394,2 YEARS - 5 YEARS,48,No,1090708,1012427501,107,07,018300,MN12,40.793571286326,-73.971353204527
DC43298,106745,THE WEST SIDE MONTESSORI SCHOOL,GCC,INFANT TODDLER,212 WEST 95 STREET,MANHATTAN,10025,(212) 662-8000,0 YEARS - 2 YEARS,28,No,1090708,1012427501,107,07,018300,MN12,40.793571286326,-73.971353204527
DC36579,105039,The Childrenâ€™s Aid Society,GCC,PRESCHOOL,1232 SOUTHERN BOULEVARD,BRONX,10459,(718) 764-2405,2 YEARS - 5 YEARS,74,Yes,2117981,2029790014,203,17,012500,BX35,40.82930446855,-73.891873374943
DC38402,105470,Adapt Community Network,GCC,PRESCHOOL,420 95 STREET,BROOKLYN,11209,(718) 680-9751,2 YEARS - 5 YEARS,115,Yes,3329016,3061230028,310,47,016200,BK31,40.615429715056,-74.030669943056
DC346,4669,NORTH BRONX NATIONAL COUNCIL OF NEGRO WOMEN CHILD DEVELOPMENT CENTER,GCC,PRESCHOOL,4035 WHITE PLAINS ROAD,BRONX,10466,(718) 231-7100,2 YEARS - 5 YEARS,118,No,2063070,2048290006,212,12,040800,BX44,40.889530088975,-73.859520552857
DC37629,105023,"AIM HIGH LEADERSHIP CENTER FOUR, INC.",GCC,PRESCHOOL,97-08 ROCKAWAY BOULEVARD,QUEENS,11417,(718) 322-2133,2 YEARS - 5 YEARS,167,No,4191192,4091680003,410,32,008600,QN56,40.680263341914,-73.841752244758
DC34761,105304,ABR PROSPECT  LLC,GCC,INFANT TODDLER,243 ST MARKS AVENUE,BROOKLYN,11238,(718) 684-7981,0 YEARS - 2 YEARS,76,No,3028206,3011450068,308,35,020500,BK64,40.678317613021,-73.967451514144
DC34781,105498,ABR Prospect LLC,GCC,PRESCHOOL,243 ST. MARKS  AVENUE,BROOKLYN,11238,(718) 684-7981,2 YEARS - 5 YEARS,69,No,3028206,3011450068,308,35,020500,BK64,40.678317613021,-73.967451514144
DC43643,106728,"THE LEARNING EXPERIENCE - SI, ST. GEORGE",GCC,INFANT TODDLER,35A BAY STREET,STATEN ISLAND,10301,(718) 981-4001,0 YEARS - 2 YEARS,18,No,5166155,5000017504,501,49,000300,SI22,40.641492463258,-74.075733844245
DC43408,106402,MELVILLE MONTESSORI LLC,GCC,PRESCHOOL,112-15 71 ROAD,QUEENS,11375,(917) 603-1854,2 YEARS - 5 YEARS,72,No,4052694,4022460031,406,29,075702,QN17,40.722396904145,-73.838711552976
DC43308,106421,"KA of Flushing, LLC",GCC,INFANT TODDLER,33-25 PARSONS BOULEVARD,QUEENS,11354,(718) 888-9499,0 YEARS - 2 YEARS,38,No,4112700,4049820004,407,20,115900,QN51,40.767749204774,-73.824117380449
DC112,2245,HEBREW INSTITUTE FOR THE DEAF AND EXCEPTIONAL CHILDREN,GCC,PRESCHOOL,1401 AVENUE I,BROOKLYN,11230,(718) 377-7507,2 YEARS - 5 YEARS,155,Yes,3179326,3066980051,314,45,053000,BK43,40.627485565342,-73.962638207779
DC42693,106117,THE WORLD,GCC,PRESCHOOL,75-43 PARSONS BOULEVARD,QUEENS,11366,(718) 380-3683,2 YEARS - 5 YEARS,99,No,4147804,4068240001,408,24,125700,QN37,40.725573668928,-73.810674404815
DC41440,106036,LITTLE SUNSHINE CENTER 2,GCC,INFANT TODDLER,6327 BROADWAY,BRONX,10471,(347) 202-7542,0 YEARS - 2 YEARS,40,No,2130558,2058353055,208,11,035100,BX22,40.899250537858,-73.89715618249
DC3105,6958,"JUDI`S NURSERY, INC.",GCC,PRESCHOOL,70-11 150 STREET,QUEENS,11367,(718) 520-1324,2 YEARS - 5 YEARS,99,No,4143983,4066560094,408,24,077906,QN37,40.730299465264,-73.818735883865
DC18770,7896,BUTTERFLY,GCC,PRESCHOOL,2770 EAST 16TH STREET,BROOKLYN,11235,(718) 646-6272,2 YEARS - 5 YEARS,47,No,3246964,3087690036,315,48,060800,BK17,40.584229551932,-73.952711593051
DC15574,7750,"STEPPING STONE DAY SCHOOL, INC.",GCC,PRESCHOOL,2826 WESTCHESTER AVENUE,BRONX,10461,(718) 554-2025,2 YEARS - 5 YEARS,186,No,2045795,2041560011,210,13,026602,BX10,40.844550376792,-73.835417957902
DC32488,74817,BRIGHT HORIZONS CHILDREN'S CENTERS LLC.,GCC,PRESCHOOL,100 WEST 89TH STREET,MANHATTAN,10024,(646) 930-0380,2 YEARS - 5 YEARS,28,Yes,1032320,1012197501,107,06,017300,MN12,40.788586779872,-73.971196461336
DC41912,106056,Alpha & Omega Kids Developmental Services LLC,GCC,PRESCHOOL,42-77 65 PLACE,QUEENS,11377,(718) 540-2142,2 YEARS - 5 YEARS,68,No,4031725,4013430001,402,26,024700,QN63,40.741534139633,-73.899461153004
DC12081,7380,"PUERTO RICAN ORGANIZATION TO MOTIVATE, ENLIGHTEN AND SERVE ADDICTS, INC. (PROMESA)",GCC,PRESCHOOL,300 EAST 175TH STREET,BRONX,10457,(347) 649-3209,2 YEARS - 5 YEARS,73,No,2112731,2028910039,205,14,023100,BX41,40.846624028246,-73.904557104389
DC33321,104035,"MILLIE'S WORLD, INC.",GCC,PRESCHOOL,27-59 CRESCENT STREET,QUEENS,11102,(718) 626-0111,2 YEARS - 5 YEARS,12,No,4563314,4005740035,401,22,007100,QN71,40.769083426463,-73.924694527491
DC2207,5728,BANK STREET COLLEGE FAMILY CENTER,GCC,PRESCHOOL,610 WEST 112 STREET,MANHATTAN,10025,(212) 875-4412,2 YEARS - 5 YEARS,50,Yes,1057331,1018940056,109,07,019900,MN09,40.805619329619,-73.966196996362
DC43935,106590,ADAMS STREET DAYCARE LLC,GCC,INFANT TODDLER,345 ADAMS STREET,BROOKLYN,11201,(917) 838-3482,0 YEARS - 2 YEARS,18,No,3392969,3001407503,302,33,001100,BK38,40.693393253911,-73.988914847833
DC11386,7424,"LITTLE ONES, LLC",GCC,PRESCHOOL,4-74 48 AVENUE,QUEENS,11109,(718) 392-1254,2 YEARS - 5 YEARS,45,No,4000019,4000180001,402,26,000100,QN31,40.744572696275,-73.956448020903
DC14225,1605,Y M/Y W H A OF WASHINGTON HEIGHTS & INWOOD INC.,GCC,PRESCHOOL,54 NAGLE AVENUE,MANHATTAN,10040,(646) 738-6090,2 YEARS - 5 YEARS,135,No,1064146,1021720064,112,10,028500,MN35,40.859986701858,-73.929128237941
DC10953,5798,THE BANK STREET COLLEGE OF EDUCATION,GCC,INFANT TODDLER,610 WEST 112 STREET,MANHATTAN,10025,(212) 875-4412,0 YEARS - 2 YEARS,20,Yes,1057331,1018940056,109,07,019900,MN09,40.805619329619,-73.966196996362
DC42092,106722,"DIKI SUNSHINE CHILDCARE CENTER, INC.",GCC,PRESCHOOL,37-11 30 STREET,QUEENS,11101,(917) 721-3300,2 YEARS - 5 YEARS,12,No,4541810,4003720008,401,26,005100,QN68,40.755119923306,-73.932023131993
DC2704,6138,BRIGHT HORIZONS AT 200 PARK AVENUE,GCC,INFANT TODDLER,200 PARK AVENUE,MANHATTAN,10017,(212) 286-5437,0 YEARS - 2 YEARS,16,Yes,1085735,1012809010,105,04,009200,MN19,40.754155038895,-73.976556932062
DC38758,105146,"CHILD DEVELOPMENT CENTER OF THE MOSHOLU-MONTEFIORE COMMUNITY CENTER, INC.",GCC,PRESCHOOL,934 EAST GUN HILL ROAD,BRONX,10469,(347) 899-8193,2 YEARS - 5 YEARS,60,No,2121102,2046350133,212,12,037000,BX44,40.875227561724,-73.859717223579
DC11073,6139,BRIGHT HORIZONS AT 200 PARK AVENUE,GCC,PRESCHOOL,200 PARK AVENUE,MANHATTAN,10017,(212) 286-5437,2 YEARS - 5 YEARS,29,Yes,1085735,1012809010,105,04,009200,MN19,40.754155038895,-73.976556932062
DC35542,104344,Kissena Cherry Daycare Inc,GCC,PRESCHOOL,138-31 58  ROAD,QUEENS,11355,(718) 886-2889,2 YEARS - 5 YEARS,77,No,4139569,4063777501,407,20,079900,QN62,40.744708748511,-73.827137736071
DC26230,63017,"VICTORIA CHILDREN'S CENTER,  INC.",GCC,PRESCHOOL,323 GRAND STREET,MANHATTAN,10002,(212) 625-1828,2 YEARS - 5 YEARS,134,Yes,1004005,1003090011,103,01,001600,MN27,40.717152138067,-73.990595532524
DC12267,7636,MSKCC CHILDREN'S CENTER,GCC,INFANT TODDLER,475 MAIN STREET,MANHATTAN,10044,(212) 224-0129,0 YEARS - 2 YEARS,18,Yes,1086204,1013730002,108,05,023801,MN31,40.759944093441,-73.951445691825
DC42280,106398,BEAN AND SPROUT KIDS CENTER INC.,GCC,PRESCHOOL,43-15 52 STREET,QUEENS,11377,(718) 570-9590,2 YEARS - 5 YEARS,47,No,4000000,4013210016,402,26,025302,QN31,40.743784588256,-73.912547007821
DC38138,105315,MSH 507 LLC,GCC,INFANT TODDLER,507 WEST 28 STREET,MANHATTAN,10001,(212) 615-1581,0 YEARS - 2 YEARS,24,No,1090201,1007000027,104,03,009900,MN13,40.751212272002,-74.002786334976
DC40614,105510,The Friends of Crown Heights Educational Centers Inc.,GCC,INFANT TODDLER,405 DUMONT AVE,BROOKLYN,11212,(718) 638-8686,0 YEARS - 2 YEARS,20,No,3424502,3037770002,316,41,091000,BK81,40.664838416971,-73.904371254592
DC40559,105511,THE FRIENDS OF CROWN HEIGHT EDUCATIONAL CENTER INC,GCC,PRESCHOOL,405 DUMONT AVENUE,BROOKLYN,11212,(929) 359-8511,2 YEARS - 5 YEARS,110,No,3424502,3037770002,316,41,091000,BK81,40.664838416971,-73.904371254592
DC38139,105316,MSH 507 LLC,GCC,PRESCHOOL,507 WEST 28 STREET,MANHATTAN,10001,(212) 695-1581,2 YEARS - 5 YEARS,44,No,1090201,1007000027,104,03,009900,MN13,40.751212272002,-74.002786334976
DC32726,103779,"LITTLE MUNCHKINS PLAYGROUP 56, INC.",GCC,PRESCHOOL,1460 56TH STREET,BROOKLYN,11219,(718) 437-7261,2 YEARS - 5 YEARS,18,No,3140136,3056920026,312,44,024000,BK88,40.628992824929,-73.992726336278
DC34768,103838,"PETITS POUSSINS TOO, INC.",GCC,PRESCHOOL,2235 FREDERICK DOUGLAS BOULEVARD,MANHATTAN,10027,(917) 825-8763,2 YEARS - 5 YEARS,26,No,1086186,1019477501,110,09,025700,MN11,40.807294585427,-73.953278573874
DC43467,106726,DIVERSITY ACADEMY CHILD CARE 3,GCC,INFANT TODDLER,1141 CASTLETON AVENUE,STATEN ISLAND,10310,(917) 821-5048,0 YEARS - 2 YEARS,8,No,5132394,5001970125,501,49,013302,SI22,40.634295931634,-74.120300684778
DC40149,105439,Congregation Bnos Chaya,GCC,PRESCHOOL,471 NORTH GANNON AVENUE,STATEN ISLAND,10314,(718) 851-1212,2 YEARS - 5 YEARS,77,No,5019047,5007510252,501,50,018901,SI07,40.608041193556,-74.144750433463
DC32552,77917,SHOLOM DAY CARE INC.,GCC,PRESCHOOL,116-66 PARK LANE SOUTH,QUEENS,11418,(718) 850-2934,2 YEARS - 5 YEARS,70,No,4079403,4033230008,409,29,077500,QN60,40.708382185735,-73.836837532818
DC43634,106690,AGUDATH CHASIDEI SPINKA,GCC,INFANT TODDLER,1565 59 STREET,BROOKLYN,11219,(718) 851-1600,0 YEARS - 2 YEARS,19,No,3131363,3055020050,312,44,024200,BK88,40.625979020081,-73.992229528749
DC42673,106182,"Elite Minds, Inc.",GCC,PRESCHOOL,295 COLUMBIA STREET,BROOKLYN,11231,(347) 916-1433,2 YEARS - 5 YEARS,16,No,3399052,3003587501,306,39,005100,BK33,40.682057799672,-74.004117463757
DC35286,104057,BRIGHT HORIZONS AT RIVERDALE,GCC,INFANT TODDLER,3223 INDEPENDENCE AVENUE,BRONX,10463,(718) 514-6974,0 YEARS - 2 YEARS,36,Yes,2085773,2059010001,208,11,030900,BX22,40.885585400755,-73.914967299592
DC43719,106525,"VIVVI 11, LLC",GCC,PRESCHOOL,25 TUDOR CITY PLACE,MANHATTAN,10017,(646) 829-8988,2 YEARS - 5 YEARS,47,No,1038655,1013340022,106,04,008800,MN19,40.748537937608,-73.970798797664
DC24846,44337,"SMART STARS ACADEMY, LTD",GCC,PRESCHOOL,1201 AVENUE K,BROOKLYN,11230,(718) 942-5400,2 YEARS - 5 YEARS,60,No,3179890,3067140041,314,44,053400,BK43,40.622501342484,-73.963584799506
DC41403,106045,Bubble U Playgroup,GCC,PRESCHOOL,1600 55TH ST,BROOKLYN,11204,(347) 351-3930,2 YEARS - 5 YEARS,44,No,3130664,3054890006,312,44,047000,BK88,40.627441690759,-73.988648449876
DC40153,105394,"SHOLOM, SHOLOM INC.",GCC,PRESCHOOL,75-21 MAIN STREET,QUEENS,11367,(646) 402-2393,2 YEARS - 5 YEARS,72,No,4438287,4066640001,408,24,077907,QN37,40.723439649459,-73.820078654339
DC44393,N/A,YESODOT HATORAH,SBCC,PRESCHOOL,1870 STILLWELL AVENUE,BROOKLYN,11230,(718) 689-5900,3 YEARS - 5 YEARS,NO DATA,No,3185119,3068520018,311,43,029800,BK29,40.600855415195,-73.986053005434
DC40839,106084,BROOKLYN ELITE CENTER INC.,GCC,PRESCHOOL,7516 BAY PARKWAY,BROOKLYN,11214,(646) 949-1963,2 YEARS - 5 YEARS,36,No,3418306,3062307502,311,43,026800,BK28,40.60777796022,-73.987747840335
DC32674,92318,A 2 Z HAPPYLAND,GCC,PRESCHOOL,190 EXETER STREET,BROOKLYN,11235,(718) 483-9999,2 YEARS - 5 YEARS,148,No,3246120,3087360026,315,48,062000,BK17,40.577928375336,-73.948349462361
DC32009,72997,"SHOLOM, SHOLOM INC.",GCC,PRESCHOOL,84-15 BEVERLY ROAD,QUEENS,11415,(718) 850-2934,2 YEARS - 5 YEARS,111,No,4574091,4033330029,409,29,013600,QN60,40.707450656289,-73.830437627112
DC44539,N/A,UNCOMMON BED-STUY WEST CHARTER SCHOOL NYC,SBCC,PRESCHOOL,141 MACON STREET,BROOKLYN,11216,(718) 938-1213,3 YEARS - 5 YEARS,NO DATA,No,3053075,3018450001,303,36,026900,BK75,40.681564555645,-73.945445809493
DC1129,7143,SHOLOM DAY CARE INC.,GCC,PRESCHOOL,82-04 LEFFERTS BOULEVARD,QUEENS,11415,(718) 480-1167,2 YEARS - 5 YEARS,71,No,4079530,4033300033,409,29,077500,QN60,40.707490359783,-73.831303175144
DC42740,106173,ELITE MINDS MONTESSORI,GCC,INFANT TODDLER,295 COLUMBIA STREET,BROOKLYN,11231,(347) 916-1433,0 YEARS - 2 YEARS,33,No,3399052,3003587501,306,39,005100,BK33,40.682057799672,-74.004117463757
DC37613,104797,"SHOLOM, SHOLOM INC.",GCC,PRESCHOOL,71-12 MAIN STREET,QUEENS,11367,(718) 487-3114,2 YEARS - 5 YEARS,177,No,4143347,4066190132,408,24,077902,QN37,40.727637058133,-73.822257314591
DC2391,1521,WEST END TEMPLE,GCC,PRESCHOOL,147-02 NEWPORT AVENUE,QUEENS,11694,(718) 634-0301,2 YEARS - 5 YEARS,43,No,4306479,4162900001,414,32,092200,QN10,40.573026156314,-73.864432680407
DC37250,104775,Little Berries II Inc.,GCC,INFANT TODDLER,8223 BAY PARKWAY,BROOKLYN,11214,(917) 708-9888,0 YEARS - 2 YEARS,28,No,3164784,3063190001,311,43,029600,BK28,40.604026186726,-73.991623481568
DC32620,91420,ELEMENTS NURSERY,GCC,PRESCHOOL,99 SUFFOLK STREET,MANHATTAN,10002,(212) 982-4444,2 YEARS - 5 YEARS,40,Yes,1086285,1003530069,103,01,001402,MN28,40.718721703903,-73.986226656791
DC38695,105050,THE CO-OP SCHOOL,GCC,PRESCHOOL,644 GATES AVENUE,BROOKLYN,11221,(347) 721-3408,2 YEARS - 5 YEARS,130,No,3348906,3018160031,303,36,027700,BK35,40.68749296515,-73.939376017344
DC40940,105987,THE LEARNING EXPERIENCE,GCC,PRESCHOOL,411 WEST   35 STREET,MANHATTAN,10001,(212) 695-7634,2 YEARS - 5 YEARS,103,Yes,1089379,1007330023,104,03,011100,MN13,40.754289124036,-73.996350886944
DC14800,6729,BRIGHT HORIZONS  CHILDREN'S CENTERS LLC,GCC,INFANT TODDLER,600 FIFTH AVENUE,MANHATTAN,10020,(212) 332-8188,0 YEARS - 2 YEARS,18,Yes,1034506,1012640030,105,04,009600,MN17,40.757523134177,-73.977945432553
DC37545,104940,SHINING SMILES DAYCARE I INC.,GCC,PRESCHOOL,882 FULTON ST,BROOKLYN,11238,(929) 227-3100,2 YEARS - 5 YEARS,47,No,3426479,3020117502,302,35,019900,BK69,40.683285241352,-73.966021281608
DC32276,96377,ADAPT COMMUNITY NETWORK,GCC,PRESCHOOL,80 WEST END AVENUE,MANHATTAN,10023,(646) 740-2525,2 YEARS - 5 YEARS,271,No,1030337,1011547501,107,06,015100,MN14,40.774232015748,-73.988522237488
DC44028,106687,Cuddles Center,GCC,PRESCHOOL,329 BROADWAY,BROOKLYN,11211,(714) 262-2015,2 YEARS - 5 YEARS,132,No,3425870,3024627502,301,34,052700,BK73,40.707965798022,-73.95658745076
DC20894,8173,ESCUELA HISPANA  MONTESSORI,GCC,PRESCHOOL,180 SUFFOLK STREET,MANHATTAN,10002,(917) 672-3409,2 YEARS - 5 YEARS,187,Yes,1004240,1003500008,103,02,003001,MN27,40.721060093406,-73.98501040944
DC42838,106592,BRIGHT MARVELS,GCC,INFANT TODDLER,34-46 VERNON BOULEVARD,QUEENS,11106,(347) 635-2995,0 YEARS - 2 YEARS,18,No,4540366,4003227501,401,22,003700,QN68,40.764487227544,-73.940930148853
DC2285,6728,"BRIGHT HORIZONS  CHILDREN'S CENTERS, LLC",GCC,PRESCHOOL,600 FIFTH AVENUE,MANHATTAN,10020,(212) 332-8188,2 YEARS - 5 YEARS,15,Yes,1034506,1012640030,105,04,009600,MN17,40.757523134177,-73.977945432553
DC2146,4898,STEPHEN WISE FREE SYNAGOGUE,GCC,PRESCHOOL,30 WEST 68 STREET,MANHATTAN,10023,(212) 877-4050,2 YEARS - 5 YEARS,53,No,1028249,1011200044,107,06,015300,MN14,40.774200504193,-73.97915301362
DC747,6971,HOSPITAL CLINIC HOME CENTER INSTRUCTIONAL CORPORATION,GCC,PRESCHOOL,1419-23 BROADWAY,BROOKLYN,11221,(718) 443-3917,2 YEARS - 5 YEARS,130,No,3251950,3033570006,304,37,039700,BK78,40.688510590378,-73.920314637706
DC33756,104125,BRIGHT HORIZONS CHILDREN'S CENTERS LLC,GCC,PRESCHOOL,745 7TH AVENUE,MANHATTAN,10019,(212) 526-1724,2 YEARS - 5 YEARS,10,No,1084667,1010020001,105,04,012500,MN17,40.760598213102,-73.983611722384
DC22603,13397,I P KIDS,GCC,PRESCHOOL,2631 86TH STREET,BROOKLYN,11223,(718) 621-7818,2 YEARS - 5 YEARS,164,No,3397177,3070920024,311,43,040200,BK29,40.596224743955,-73.984383190173
DC37275,104479,BROOKLYN KINDERGARTEN SOCIETY,GCC,PRESCHOOL,1592 EAST NEW YORK AVENUE,BROOKLYN,11212,(718) 342-2905,2 YEARS - 5 YEARS,45,No,3339438,3034890001,316,41,090600,BK81,40.672892895805,-73.909345361989
DC33457,104126,BRIGHT HORIZONS CHILDREN'S CENTERS LLC,GCC,INFANT TODDLER,745 7TH AVENUE,MANHATTAN,10019,(212) 526-1724,0 YEARS - 2 YEARS,16,No,1084667,1010020001,105,04,012500,MN17,40.760598213102,-73.983611722384
DC37648,105298,BRIGHT START EARLY LEARNING ACADEMY LLC,GCC,PRESCHOOL,108-10 SUTPHIN BOULEVARD,QUEENS,11435,(718) 206-2123,2 YEARS - 5 YEARS,90,No,4258254,4119460121,412,28,019800,QN01,40.692795215306,-73.79918512076
DC17886,7826,"LAGUARDIA COMMUNITY COLLEGE EARLY CHILDHOOD LEARNING CENTER PROGRAMS, INC.",GCC,PRESCHOOL,31-10 THOMSON AVENUE,QUEENS,11101,(718) 482-5295,2 YEARS - 5 YEARS,73,No,4003534,4002780001,402,26,017900,QN31,40.744894678602,-73.935021774284
DC24816,26417,"UNITED ACADEMY, INC.",GCC,PRESCHOOL,60 HARRISON AVENUE,BROOKLYN,11211,(718) 935-9848,2 YEARS - 5 YEARS,307,No,3060902,3022200038,301,33,052900,BK72,40.705054777148,-73.952636373358
DC39832,105463,KIDDIE CITY,GCC,INFANT TODDLER,1468 55TH ST,BROOKLYN,11219,(347) 585-6547,0 YEARS - 2 YEARS,34,No,3139812,3056850031,312,44,024000,BK88,40.629478604533,-73.992020166979
DC41637,106748,JOYFUL TOTS DAYCARE CENTER INC.,GCC,INFANT TODDLER,947 SUTTER AVENUE,BROOKLYN,11207,(347) 351-2196,0 YEARS - 2 YEARS,19,No,3089507,3040320037,305,42,116200,BK82,40.671082874302,-73.883684606372
DC34491,103833,RIVER SCHOOL WESTSIDE,GCC,PRESCHOOL,75 WEST END AVE,MANHATTAN,10023,(212) 707-8300,2 YEARS - 5 YEARS,70,No,1088686,1011710063,107,06,015100,MN14,40.774212871721,-73.98923711854
DC2434,2010,PARK AVENUE SYNAGOGUE,GCC,PRESCHOOL,50 EAST 87 STREET,MANHATTAN,10128,(212) 369-2600,2 YEARS - 5 YEARS,137,No,1046856,1014980047,108,04,015002,MN40,40.781300808881,-73.957799650608
DC1980,6030,"NYSARC, INC., NYC CHAPTER",GCC,PRESCHOOL,2300 WESTCHESTER AVENUE,BRONX,10462,(718) 409-1450,2 YEARS - 5 YEARS,150,Yes,2087040,2038340081,210,18,009600,BX59,40.835543201127,-73.848150203092
DC34439,104251,BRIGHT HORIZONS AT 96TH ST.,GCC,INFANT TODDLER,103 WEST 96 STREET,MANHATTAN,10025,(212) 257-4749,0 YEARS - 2 YEARS,36,No,1079308,1018517501,107,07,018100,MN12,40.793054385242,-73.967991103067
DC34438,104250,BRIGHT HORIZONS AT 96TH ST.,GCC,PRESCHOOL,103 WEST  96 STREET,MANHATTAN,10025,(212) 257-4749,2 YEARS - 5 YEARS,58,No,1079308,1018517501,107,07,018100,MN12,40.793054385242,-73.967991103067
DC35558,104058,BRIGHT HORIZONS AT RIVERDALE,GCC,PRESCHOOL,3223 INDEPENDENCE AVENUE,BRONX,10463,(718) 514-6974,2 YEARS - 5 YEARS,62,Yes,2085773,2059010001,208,11,030900,BX22,40.885585400755,-73.914967299592
DC44444,106731,ALAPHIM,GCC,PRESCHOOL,2209 AVENUE R,BROOKLYN,11229,(646) 250-9953,2 YEARS - 5 YEARS,35,No,3329271,3068050050,315,48,055000,BK44,40.606587689596,-73.950574474348
DC32417,92661,Bright Horizons at Tribeca,GCC,INFANT TODDLER,129 HUDSON STREET,MANHATTAN,10013,(212) 226-7465,0 YEARS - 2 YEARS,46,No,1002127,1001887503,101,01,003900,MN24,40.720352606133,-74.008524675072
DC32416,92657,Bright Horizons at Tribeca,GCC,PRESCHOOL,129 HUDSON STREET,MANHATTAN,10013,(212) 226-7465,2 YEARS - 5 YEARS,72,No,1002127,1001887503,101,01,003900,MN24,40.720352606133,-74.008524675072
DC21843,12817,BRIGHTER BABIES INC.,GCC,PRESCHOOL,2-17 51 AVENUE,QUEENS,11101,(718) 786-2273,2 YEARS - 5 YEARS,83,No,4540156,4000167501,402,26,000100,QN31,40.742808509981,-73.95832213832
DC21461,9318,BRIGHTER BABIES INC.,GCC,INFANT TODDLER,2-17 51 AVENUE,QUEENS,11101,(718) 786-2273,0 YEARS - 2 YEARS,56,No,4540156,4000167501,402,26,000100,QN31,40.742808509981,-73.95832213832
DC38679,105462,ALL MY CHILDREN DAY CARE AND NURSERY SCHOOL,GCC,PRESCHOOL,622 AMSTERDAM AVENUE,MANHATTAN,10024,(917) 546-6220,2 YEARS - 5 YEARS,40,No,1086107,1012387503,107,06,017900,MN12,40.790385042346,-73.973051926677
DC42308,106085,YESHIVA YESODE HATORAH,GCC,PRESCHOOL,184 NOSTRAND AVENUE,BROOKLYN,11205,(718) 302-7500,2 YEARS - 5 YEARS,86,No,3048591,3017530042,303,33,024100,BK75,40.69395203079,-73.952290890075
DC44995,106710,URBAN STRATEGIES INC. (Swing Space),GCC,PRESCHOOL,1091 SUTTER AVENUE,BROOKLYN,11208,(718) 235-1215,2 YEARS - 5 YEARS,35,No,3089620,3040390001,305,42,119400,BK82,40.671884138031,-73.878196490769
DC40658,105633,Star A Kidz,GCC,PRESCHOOL,345 WEST 42ND STREET,MANHATTAN,10036,(212) 974-2222,2 YEARS - 5 YEARS,55,No,1085966,1010330009,104,03,012100,MN15,40.757788405696,-73.991105945833
DC35466,104231,"BILINGUAL NEST, LLC",GCC,INFANT TODDLER,300 MANHATTAN AVENUE,MANHATTAN,10026,(917) 825-8763,0 YEARS - 2 YEARS,26,No,1055804,1018470039,110,09,019702,MN11,40.802852812019,-73.958407207532
DC32834,96737,SCO FAMILY OF SERVICES,GCC,PRESCHOOL,33-27 97TH  STREET,QUEENS,11368,(718) 289-7730,2 YEARS - 5 YEARS,56,No,4307613,4017120019,403,21,037700,QN26,40.756429180628,-73.871204847955
DC42561,106048,TIEGERMAN SCHOOL,GCC,PRESCHOOL,264 BEACH 19 STREET,QUEENS,11691,(718) 868-2961,2 YEARS - 5 YEARS,133,No,4299362,4156340048,414,31,101001,QN15,40.596873785526,-73.753199816833
DC42946,106172,LITTLE STARS CHILDCARE PROGRAM IV LLC,GCC,PRESCHOOL,2317 CAMBRELENG AVENUE,BRONX,10458,(917) 736-6737,2 YEARS - 5 YEARS,91,No,2129513,2030880039,206,15,039100,BX06,40.853175193686,-73.885924223087
DC42284,106109,"LEFFERTS GARDEN PROMISE, LLC",GCC,PRESCHOOL,1531 NOSTRAND AVENUE,BROOKLYN,11226,(718) 210-8261,2 YEARS - 5 YEARS,20,No,3110017,3049010073,317,45,082400,BK95,40.648760754608,-73.949343087043
DC33515,104247,"CLAIRE HEUREUSE COMMUNITY CENTER, INC",GCC,PRESCHOOL,81-05 101 AVENUE,QUEENS,11416,(718) 848-5800,2 YEARS - 5 YEARS,18,Yes,4188187,4090520037,409,32,004200,QN53,40.680923852192,-73.857755169348
DC32840,91258,LITTLE EXCELLENCE LLC,GCC,PRESCHOOL,2144 RICHMOND AVENUE,STATEN ISLAND,10314,(718) 370-3784,2 YEARS - 5 YEARS,59,No,5035476,5021020134,502,51,029103,SI05,40.595043602465,-74.161897840488
DC1120,2171,TEMPLE ISRAEL OF THE CITY OF NEW YORK,GCC,PRESCHOOL,112 EAST 75 STREET,MANHATTAN,10021,(212) 249-5001,2 YEARS - 5 YEARS,95,No,1043104,1014090068,108,04,012800,MN40,40.772787983123,-73.961805407348
DC34842,103993,BRIGHT HORIZON'S AT EAST 92ND STREET,GCC,PRESCHOOL,245 EAST   92 STREET,MANHATTAN,10128,(212) 369-9626,2 YEARS - 5 YEARS,47,No,1089874,1015380021,108,05,015400,MN32,40.781991957146,-73.949674646392
DC34841,103991,BRIGHT HORIZON'S AT EAST 92ND STREET,GCC,INFANT TODDLER,245 E 92ND ST,MANHATTAN,10128,(212) 369-9626,0 YEARS - 2 YEARS,28,No,1089874,1015380021,108,05,015400,MN32,40.781991957146,-73.949674646392
DC24735,25217,FRIENDS OF CROWN HEIGHTS EDUCATIONAL CENTER,GCC,PRESCHOOL,995 CARROLL STREET,BROOKLYN,11225,(929) 234-5010,2 YEARS - 5 YEARS,96,No,3033470,3012800054,309,35,032500,BK63,40.667702985031,-73.957331093878
DC35464,104232,"BILINGUAL NEST, LLC",GCC,PRESCHOOL,300 MANHATTAN AVE,MANHATTAN,10026,(917) 825-8763,2 YEARS - 5 YEARS,18,No,1055804,1018470039,110,09,019702,MN11,40.802852812019,-73.958407207532
DC14345,6408,"CHINESE-AMERICAN PLANNING COUNCIL, INC.",GCC,PRESCHOOL,108 AVENUE D,MANHATTAN,10009,(212) 533-9138,2 YEARS - 5 YEARS,60,No,1077507,1003620001,103,02,002400,MN28,40.723484970184,-73.97616369604
DC36835,105045,KIDDIE ACADEMY OF TRIBECA,GCC,PRESCHOOL,72 READE STREET,MANHATTAN,10007,(646) 973-1964,2 YEARS - 5 YEARS,94,No,1001640,1001507501,101,01,003300,MN24,40.715121190265,-74.006853832613
DC41460,105802,"Bâ€™ABOVE WORLDWIDE INSTITUTE, INC",GCC,PRESCHOOL,219-18 HORACE HARDING EXPRESSWAY,QUEENS,11364,(718) 925-2003,2 YEARS - 5 YEARS,117,No,4162175,4076090008,411,23,136700,QN42,40.748389296268,-73.758613014982
DC41909,106749,JOYFUL TOTS DAYCARE CENTER INC.,GCC,PRESCHOOL,947 SUTTER AVENUE,BROOKLYN,11207,(347) 351-2196,2 YEARS - 5 YEARS,17,No,3089507,3040320037,305,42,116200,BK82,40.671082874302,-73.883684606372
DC44092,106559,CLEARVIEW KIDS INC.,GCC,PRESCHOOL,68-60 AUSTIN STREET,QUEENS,11375,(347) 730-4235,2 YEARS - 5 YEARS,58,No,4077447,4032340029,406,29,071100,QN17,40.722217910147,-73.850433313011
DC36845,105044,KIDDIE ACADEMY OF TRIBECA,GCC,INFANT TODDLER,72 READE STREET,MANHATTAN,10007,(646) 973-1964,0 YEARS - 2 YEARS,36,No,1001640,1001507501,101,01,003300,MN24,40.715121190265,-74.006853832613
DC33803,103848,"PETITS POUSSINS TOO, INC",GCC,INFANT TODDLER,2235 FREDERICK DOUGLAS BLVD.,MANHATTAN,10027,(212) 663-7777,0 YEARS - 2 YEARS,36,No,1086186,1019477501,110,09,025700,MN11,40.807294585427,-73.953278573874
DC17011,8357,The Auditory/Oral School of NY,GCC,PRESCHOOL,3321 AVENUE M,BROOKLYN,11210,(718) 531-1800,2 YEARS - 5 YEARS,196,No,3209738,3076510001,318,45,074400,BK58,40.619940030495,-73.94246698951
DC40263,105477,"B'ABOVE WORLDWIDE INSTITUTE, INC.",GCC,PRESCHOOL,6023 FORT HAMILTON PARKWAY,BROOKLYN,11219,(718) 307-4343,2 YEARS - 5 YEARS,150,No,3141188,3057150055,312,43,021400,BK88,40.632917949387,-74.0057861286
DC19537,N/A,ST. CLARE OF ASSISI SCHOOL,SBCC,PRESCHOOL,1911 HONE AVENUE,BRONX,10461,(718) 892-4080,3 YEARS - 5 YEARS,NO DATA,No,2087156,2042690037,211,13,025000,BX49,40.851198987095,-73.856532945785
DC40330,105903,Vivvi 5 LLC,GCC,PRESCHOOL,55 PROSPECT STREET,BROOKLYN,11201,(646) 343-9889,2 YEARS - 5 YEARS,46,No,3000161,3000630001,302,33,002100,BK38,40.700697048095,-73.988462816594
DC25953,52257,"THE CHILD CENTER OF NY, INC.",GCC,PRESCHOOL,169 WEST 87TH STREET,MANHATTAN,10024,(212) 799-2440,2 YEARS - 5 YEARS,52,Yes,1032229,1012180010,107,06,017300,MN12,40.787923100833,-73.973482664574
DC41398,106750,"TERRIFIC TIGERS, CORP.",GCC,PRESCHOOL,73-14 YELLOWSTONE BOULEVARD,QUEENS,11375,(516) 497-6619,2 YEARS - 5 YEARS,18,No,4467415,4031500127,406,29,070900,QN17,40.717201012655,-73.857323923305
DC11176,4827,HEARTSHARE HUMAN SERVICES OF NEW YORK,GCC,PRESCHOOL,115-15 101 AVENUE,QUEENS,11419,(718) 441-5333,2 YEARS - 5 YEARS,121,Yes,4198275,4094170046,409,29,012000,QN54,40.689061456405,-73.829132368825
DC44074,106706,EAST 156 DAYCARE LLC,GCC,INFANT TODDLER,780 SAINT ANNS AVENUE,BRONX,10456,(973) 464-7292,0 YEARS - 2 YEARS,30,No,2117695,2026187501,201,17,007500,BX34,40.820169331838,-73.910260374772
DC34606,103853,Eastside Day School LLC,GCC,INFANT TODDLER,1520 YORK AVENUE,MANHATTAN,10028,(212) 734-1000,0 YEARS - 2 YEARS,46,No,1050869,1015770001,108,05,013600,MN32,40.772355141019,-73.949714450521
DC14452,7460,"UNION SETTLEMENT ASSOCIATION, INC.",GCC,PRESCHOOL,2081 SECOND AVENUE,MANHATTAN,10029,(212) 828-6029,2 YEARS - 5 YEARS,60,Yes,1080693,1016560001,111,08,017000,MN33,40.791364362844,-73.941906575481
DC38514,105436,City College Child Development Center,GCC,PRESCHOOL,119 CONVENT  AVENUE,MANHATTAN,10031,(212) 650-7679,2 YEARS - 5 YEARS,44,Yes,1084069,1019570001,109,09,021703,MN06,40.817392027791,-73.952126185438
DC2804,6483,YORK AVENUE PRESCHOOL,GCC,PRESCHOOL,1520 YORK AVENUE,MANHATTAN,10028,(212) 734-0922,2 YEARS - 5 YEARS,122,No,1050869,1015770001,108,05,013600,MN32,40.772355141019,-73.949714450521
DC14347,5418,Hebrew Institute for the Deaf and Exceptional Children,GCC,PRESCHOOL,1401 AVENUE I,BROOKLYN,11230,(718) 377-7507,2 YEARS - 5 YEARS,62,No,3179326,3066980051,314,45,053000,BK43,40.627485565342,-73.962638207779
DC39077,105474,CITI CHILDREN'S CENTER AT 388 GREENWICH,GCC,INFANT TODDLER,388 GREENWICH STREET,MANHATTAN,10013,(212) 816-7700,0 YEARS - 2 YEARS,15,No,1082816,1002160001,101,01,003900,MN24,40.720651658088,-74.010097618713
DC36780,104625,BROOKLYN PRESCHOOL OF SCIENCE,GCC,PRESCHOOL,78 AMITY STREET,BROOKLYN,11201,(718) 344-4631,2 YEARS - 5 YEARS,87,No,3426823,3002957503,306,39,004900,BK33,40.68956480205,-73.997414575156
DC37236,105148,"CHINESE - AMERICAN PLANNING COUNCIL, INC",GCC,PRESCHOOL,175 DELANCEY STREET,MANHATTAN,10002,(646) 678-3847,2 YEARS - 5 YEARS,64,Yes,1089451,1003477501,103,01,001402,MN28,40.717458957272,-73.985004007643
DC39076,105473,CITI CHILDREN'S CENTER AT 388 GREENWICH,GCC,PRESCHOOL,388 GREENWICH STREET,MANHATTAN,10013,(212) 816-7700,2 YEARS - 5 YEARS,18,No,1082816,1002160001,101,01,003900,MN24,40.720651658088,-74.010097618713
DC43873,106695,OITZERLECH INC.,GCC,INFANT TODDLER,21 MESEROLE STREET,BROOKLYN,11206,(929) 539-0560,0 YEARS - 2 YEARS,38,No,3427297,3030400044,301,34,051100,BK90,40.707485313741,-73.949518307451
DC42806,106481,BROOKLYN PRESCHOOL OF SCIENCE,GCC,INFANT TODDLER,78 AMITY STREET,BROOKLYN,11201,(718) 344-4631,0 YEARS - 2 YEARS,18,No,3426823,3002957503,306,39,004900,BK33,40.68956480205,-73.997414575156
DC38601,105480,BRIGHT HORIZONS AT WEST 53RD,GCC,INFANT TODDLER,525 WEST   52 STREET,MANHATTAN,10019,(646) 348-9013,0 YEARS - 2 YEARS,52,Yes,1090143,1010817501,104,03,013500,MN15,40.766514074465,-73.992252779826
DC42697,106407,kiddieland center LLC,GCC,INFANT TODDLER,869 MYRTLE AVENUE,BROOKLYN,11206,(718) 302-7530,0 YEARS - 2 YEARS,153,No,3426037,3017470054,303,36,025700,BK75,40.695542035785,-73.947785582259
DC41900,106066,LEARN & DISCOVER 2,GCC,PRESCHOOL,1368 FOREST AVENUE,STATEN ISLAND,10302,(347) 699-0212,2 YEARS - 5 YEARS,24,No,5011138,5003890004,501,50,020100,SI07,40.625512586772,-74.135097952949
DC2030,3067,WILLIAMSBRIDGE N A A C P EARLY CHILDHOOD EDUCATION CENTER,GCC,PRESCHOOL,670-680 EAST 219 STREET,BRONX,10467,(718) 798-1262,2 YEARS - 5 YEARS,145,No,2057523,2046510044,212,12,039200,BX44,40.883864602867,-73.863771080377
DC41344,106068,LEARN & DISCOVER 2,GCC,INFANT TODDLER,1368 FOREST AVENUE,STATEN ISLAND,10302,(347) 699-0212,0 YEARS - 2 YEARS,78,No,5011138,5003890004,501,50,020100,SI07,40.625512586772,-74.135097952949
DC42943,106171,LITTLE STARS CHILDCARE PROGRAM IV LLC,GCC,INFANT TODDLER,2317 CAMBRELENG AVENUE,BRONX,10458,(917) 736-6737,0 YEARS - 2 YEARS,40,No,2129513,2030880039,206,15,039100,BX06,40.853175193686,-73.885924223087
DC11199,7509,MORNINGSIDE MONTESSORI SCHOOL,GCC,PRESCHOOL,251 WEST 100 STREET,MANHATTAN,10025,(212) 316-1555,2 YEARS - 5 YEARS,53,No,1056474,1018720001,107,07,018700,MN12,40.797622415233,-73.970871089286
DC42972,106239,BEANSTALK CHILD CARE ACADEMY,GCC,PRESCHOOL,1362 JEROME AVENUE,BRONX,10452,(718) 590-4615,2 YEARS - 5 YEARS,129,No,2127533,2028410005,204,16,022101,BX63,40.839385759425,-73.918282833788
DC35260,104213,"INNER FORCE TOTS, INC.",GCC,PRESCHOOL,133-40 79  STREET,QUEENS,11414,(718) 296-0555,2 YEARS - 5 YEARS,72,No,4541230,4113580001,410,32,006202,QN57,40.671829051876,-73.856675135856
DC14422,4473,"THE FRIENDS OF CROWN HEIGHTS EDUCATIONAL CENTERS, INC.",GCC,PRESCHOOL,36 FORD STREET,BROOKLYN,11213,(718) 975-3375,2 YEARS - 5 YEARS,90,No,3038317,3014200051,309,41,035500,BK63,40.664897669219,-73.929282251828
DC23264,25917,ALL MY CHILDREN DAY CARE AND NURSERY SCHOOL,GCC,PRESCHOOL,110-15 164 PLACE,QUEENS,11433,(718) 526-5911,2 YEARS - 5 YEARS,123,No,4216947,4101930001,412,27,026400,QN01,40.693618591425,-73.786986724594
DC42080,106734,"EAST SIDE HOUSE, INC.",GCC,PRESCHOOL,707 CONCOURSE VILLAGE WEST,BRONX,10451,(718) 292-5335,2 YEARS - 5 YEARS,35,No,2128884,2024587501,204,16,005902,BX14,40.821897514825,-73.924092566089
DC22786,82318,NEW YORK KIDS CLUB,GCC,PRESCHOOL,280 PARK AVENUE SOUTH,MANHATTAN,10010,(212) 375-1100,2 YEARS - 5 YEARS,29,Yes,1068310,1008507503,105,02,005600,MN13,40.739565570035,-73.987229133204
DC40271,105478,"B 'ABOVE WORLDWIDE INSTITUTE, INC",GCC,PRESCHOOL,5901 13TH AVE,BROOKLYN,11219,(718) 689-5506,2 YEARS - 5 YEARS,250,No,3141065,3057120001,312,44,019200,BK88,40.629325157586,-73.998022158821
DC32913,97739,THE LEARNING EXPERIENCE,GCC,INFANT TODDLER,3210 RIVERDALE AVENUE,BRONX,10463,(718) 708-5884,0 YEARS - 2 YEARS,28,Yes,2083672,2057597501,208,11,028500,BX29,40.882989155426,-73.908171753035
DC40052,105675,THE LEARNING EXPERIENCE,GCC,PRESCHOOL,3425 EAST TREMONT AVENUE,BRONX,10465,(718) 828-5134,2 YEARS - 5 YEARS,68,No,2076429,2054190114,210,13,016400,BX52,40.832621684897,-73.827894983635
DC42839,106751,BRIGHT MARVELS,GCC,PRESCHOOL,34-46 VERNON BOULEVARD,QUEENS,11106,(347) 635-2995,2 YEARS - 5 YEARS,12,No,4540366,4003227501,401,22,003700,QN68,40.764487227544,-73.940930148853
DC593,1489,BOULEVARD NURSERY SCHOOL,GCC,PRESCHOOL,2150 LINDEN BOULEVARD,BROOKLYN,11207,(718) 679-6579,2 YEARS - 5 YEARS,70,No,3324285,3043550001,305,42,111000,BK82,40.661585846002,-73.883596703179
DC43800,106716,LITTLE ROSES DC LLC,GCC,INFANT TODDLER,948 MCDONALD AVENUE,BROOKLYN,11218,(347) 520-7108,0 YEARS - 2 YEARS,73,No,3337668,3054070082,312,44,047800,BK88,40.631170155467,-73.977255996316
DC35885,105245,THE CAEDMON SCHOOL,GCC,PRESCHOOL,416 EAST 80 STREET,MANHATTAN,10075,(212) 879-2296,2 YEARS - 5 YEARS,108,No,1081273,1015590005,108,05,013600,MN32,40.772633047764,-73.951306429881
DC41444,106752,TINY TREASURES DAYCARE,GCC,PRESCHOOL,396 VAN DUZER STREET,STATEN ISLAND,10304,(718) 273-5157,2 YEARS - 5 YEARS,31,Yes,5013590,5005180010,501,49,003300,SI08,40.62841599125,-74.080240182811
DC16685,7651,BRIGHT HORIZONS  CHILDREN'S CENTERS LLC,GCC,INFANT TODDLER,888 MAIN STREET,MANHATTAN,10044,(212) 750-5301,0 YEARS - 2 YEARS,18,Yes,1086085,1013730001,108,05,023802,MN31,40.769165520468,-73.943362881685
DC42385,106262,Friends of the New Amsterdam School Inc,GCC,PRESCHOOL,62 AVENUE B,MANHATTAN,10009,(212) 533-1820,2 YEARS - 5 YEARS,35,No,1005026,1004000031,103,02,003200,MN22,40.7235080495,-73.982365386165
DC32959,96719,"ONE WORLD PROJECT - BROOKLYN, INC.",GCC,PRESCHOOL,302 VANDERBILT STREET,BROOKLYN,11218,(718) 435-2840,2 YEARS - 5 YEARS,80,No,3382209,3052720001,307,39,150200,BK40,40.652437041744,-73.978924521577
DC22469,9240,"BEGINNINGS NURSERY SCHOOL, INC.",GCC,PRESCHOOL,130 EAST 16TH STREET,MANHATTAN,10003,(212) 228-5679,2 YEARS - 5 YEARS,73,No,1017811,1008710055,106,02,005000,MN21,40.735127312899,-73.987464531023
DC339,2051,LOUIS A. FICKLING CHILD DEVELOPMENT CENTER,GCC,PRESCHOOL,1240 WEBSTER AVENUE,BRONX,10456,(718) 538-7135,2 YEARS - 5 YEARS,40,No,2091187,2023950001,203,16,014500,BX01,40.832668201154,-73.909387009369
DC25590,52498,ELITE KIDS SERVICES INC.,GCC,PRESCHOOL,2211 CONEY ISLAND AVENUE,BROOKLYN,11223,(718) 375-2002,2 YEARS - 5 YEARS,35,No,3329276,3068170047,315,48,055600,BK25,40.603353059461,-73.961567797634
DC34091,104230,"LA ESCUELITA, INC.",GCC,PRESCHOOL,225 WEST  99TH STREET,MANHATTAN,10025,(212) 877-1100,2 YEARS - 5 YEARS,72,Yes,1084035,1018710029,107,07,018700,MN12,40.79626068646,-73.969585924293
DC34688,104282,THE GODDARD SCHOOL,GCC,INFANT TODDLER,755 SECOND AVE,MANHATTAN,10017,(646) 809-3555,0 YEARS - 2 YEARS,68,No,1037175,1013140021,106,04,008800,MN19,40.748829407,-73.972938873293
DC2822,6809,"IMAGINE EARLY LEARNING CENTERS,LLC",GCC,INFANT TODDLER,1 JAMAICA CENTER PLAZA,QUEENS,11432,(718) 557-5520,0 YEARS - 2 YEARS,18,No,4451048,4100970020,412,27,024000,QN61,40.703265933247,-73.800404963994
DC17590,7779,"THE PICKWICK SCHOOL, INC.",GCC,PRESCHOOL,151-15 85 DRIVE,QUEENS,11432,(718) 526-1340,2 YEARS - 5 YEARS,59,No,4208372,4097340041,408,24,023000,QN35,40.709664266996,-73.806968493681
DC21327,10417,KID KRAZY INC. PRESCHOOL,GCC,INFANT TODDLER,25-19 27 STREET,QUEENS,11102,(718) 204-0646,0 YEARS - 2 YEARS,10,No,4616724,4008397501,401,22,006900,QN71,40.771603114475,-73.920622799448
DC42840,106238,Concrete Life Experiences LLC,GCC,INFANT TODDLER,2600 ADAM CLAYTON POWELL JR BOULEVARD,MANHATTAN,10039,(917) 965-2675,0 YEARS - 2 YEARS,10,No,,,,,,,,
DC14370,7426,"SUNSHINE SCHOOL, LLC",GCC,PRESCHOOL,91-10 146 STREET,QUEENS,11435,(718) 468-9000,2 YEARS - 5 YEARS,122,No,4213884,4099860061,412,24,021200,QN61,40.700867647565,-73.808840597847
DC2620,5891,TEMPLE SHAARAY TEFILA,GCC,PRESCHOOL,250 EAST 79 STREET,MANHATTAN,10075,(212) 535-2146,2 YEARS - 5 YEARS,128,No,1044191,1014330127,108,05,013400,MN31,40.773790548274,-73.956165274379
DC36324,104332,"QSAC, INC",GCC,PRESCHOOL,3200 JEROME AVENUE,BRONX,10468,(718) 728-8476,2 YEARS - 5 YEARS,87,No,2017669,2033230036,207,11,041100,BX05,40.87730010152,-73.887415905159
DC295,N/A,ST. PHILIP NERI SCHOOL,SBCC,PRESCHOOL,3031 GRAND CONCOURSE,BRONX,10468,(718) 365-8806,3 YEARS - 5 YEARS,NO DATA,No,2017313,2033100057,207,14,041100,BX05,40.873660152317,-73.886966486472
DC16938,69238,KON GEN CORPORATION,GCC,PRESCHOOL,196-25 42ND AVENUE,QUEENS,11358,(718) 281-2338,NO DATA,216,No,4618457,4053610010,411,19,118100,QN48,40.759786770284,-73.785463971914
DC40653,105854,THE LEARNING EXPERIENCE,GCC,PRESCHOOL,185 MARCY AVE,BROOKLYN,11211,(718) 782-5791,2 YEARS - 5 YEARS,94,No,3059752,3021510006,301,34,052900,BK72,40.707722162456,-73.958336946262
DC33661,103600,"ALL IN ONE KIDS, INC.",GCC,PRESCHOOL,67-45 215 STREET,QUEENS,11364,(929) 331-4000,2 YEARS - 5 YEARS,39,No,4163110,4076270011,411,23,136700,QN42,40.743334727438,-73.760544077553
DC44371,106581,LITTLE STARS CHILDCARE PROGRAM VII LLC,GCC,PRESCHOOL,4180 CARPENTER AVENUE,BRONX,10466,(917) 736-6737,2 YEARS - 5 YEARS,88,No,2000000,2048350045,212,11,042000,BX44,40.89380210383,-73.860527872009
DC2997,6374,"BLOOMINGDALE  FAMILY PROGRAM, INC.",GCC,PRESCHOOL,987 COLUMBUS AVENUE,MANHATTAN,10025,(212) 665-4631,2 YEARS - 5 YEARS,68,No,1055711,1018440001,107,07,019300,MN09,40.800822842492,-73.961695348819
DC42512,106305,LITTLE ME DAYCARE CENTER,GCC,INFANT TODDLER,1541 DEAN STREET,BROOKLYN,11213,(718) 925-2752,0 YEARS - 2 YEARS,48,No,3427320,3013407505,308,36,031100,BK61,40.676172185284,-73.936920414011
DC423,N/A,BATTALION CHRISTIAN ACADEMY,SBCC,PRESCHOOL,661 LINDEN BOULEVARD,BROOKLYN,11203,(718) 774-5447,3 YEARS - 5 YEARS,58,No,3108481,3048670025,317,41,087000,BK91,40.653592008881,-73.93402986148
DC18495,8176,"NEW YORK CENTER FOR INFANTS AND TODDLERS, INC.",GCC,PRESCHOOL,1787 MADISON AVENUE,MANHATTAN,10035,(212) 289-6100,2 YEARS - 5 YEARS,26,No,1086215,1016237501,111,09,018400,MN34,40.80082666102,-73.944217153399
DC1323,1594,"UTOPIA CHILDREN'S  CENTER, INC.",GCC,PRESCHOOL,236 WEST 129 STREET,MANHATTAN,10027,(212) 663-7375,2 YEARS - 5 YEARS,60,No,1081503,1019330001,110,09,022400,MN03,40.811804316799,-73.947206326409
DC21351,9357,"STEP BY STEP EARLY CHILDHOOD CENTER, INC.",GCC,INFANT TODDLER,1163 LENOX ROAD,BROOKLYN,11212,(718) 922-6366,0 YEARS - 2 YEARS,18,No,3101285,3046520040,317,41,089000,BK96,40.659897156386,-73.917663757718
DC22771,24217,I BEAR DAYCARE CENTER,GCC,PRESCHOOL,33-15 154TH  STREET,QUEENS,11354,(718) 939-3870,2 YEARS - 5 YEARS,39,No,4118404,4052390031,407,19,115100,QN51,40.768144760831,-73.810516816563
DC23082,27317,CHABAD OF TRIBECA,GCC,PRESCHOOL,291 BROADWAY (ENTRANCE 54 READE STREET),MANHATTAN,10007,(212) 566-3007,2 YEARS - 5 YEARS,82,No,1001649,1001500038,101,01,003300,MN24,40.714816580157,-74.005778836563
DC1103,N/A,BETH RACHEL SCHOOL FOR GIRLS,SBCC,PRESCHOOL,241 KEAP STREET,BROOKLYN,11211,(718) 963-9292,3 YEARS - 5 YEARS,NO DATA,No,3060167,3021950001,301,33,052900,BK72,40.706233860525,-73.956621044197
DC32467,75877,SHEMTOV KINDER,GCC,INFANT TODDLER,4917 14TH AVENUE,BROOKLYN,11219,(718) 633-7529,0 YEARS - 2 YEARS,20,No,3137773,3056430004,312,44,023600,BK88,40.633535240303,-73.990059727854
DC82,6950,STAR AMERICA INC.,GCC,PRESCHOOL,880 60 STREET,BROOKLYN,11220,(718) 431-2545,2 YEARS - 5 YEARS,96,No,3347466,3057147501,312,43,011800,BK34,40.634520770807,-74.007976835368
DC1058,N/A,SCHOOL BASED CHILD CARE,SBCC,PRESCHOOL,212 WILLIAMSBURG STREET EAST,BROOKLYN,11211,(718) 963-9288,3 YEARS - 5 YEARS,NO DATA,No,3060136,3021940019,301,33,053300,BK72,40.705490706334,-73.958453762516
DC32421,103596,BASIN PREP,GCC,PRESCHOOL,6085 STRICKLAND  AVENUE,BROOKLYN,11234,(718) 872-5511,2 YEARS - 5 YEARS,114,No,3343230,3084701080,318,46,069800,BK45,40.611338487202,-73.912998511706
DC440,5215,BEANSPROUTS,GCC,PRESCHOOL,410 6 AVENUE,BROOKLYN,11215,(718) 965-8573,2 YEARS - 5 YEARS,63,No,3021910,3009990041,306,39,013700,BK37,40.668837812454,-73.983281088116
